{
  "protocolSection": {
    "identificationModule": {
      "nctId": "NCT05557942",
      "orgStudyIdInfo": {
        "id": "AV-101-003"
      },
      "organization": {
        "fullName": "Aerovate Therapeutics",
        "class": "INDUSTRY"
      },
      "briefTitle": "Inhaled Imatinib Pulmonary Arterial Hypertension Clinical Trial - Follow Up Long Term Extension (IMPAHCT-FUL)",
      "officialTitle": "A Long-Term Extension, Multi-Center Safety Study of AV-101 in Subjects With Pulmonary Arterial Hypertension (PAH) Who Have Completed Study AV-101-002 (IMPAHCT-FUL)",
      "acronym": "IMPAHCT-FUL"
    },
    "statusModule": {
      "statusVerifiedDate": "2024-10",
      "overallStatus": "TERMINATED",
      "whyStopped": "Results from the parent study (IMPAHCT) demonstrated that while inhaled imatinib was well tolerated, it did not prove to be efficacious at any of the doses of AV-101 evaluated in the study.",
      "expandedAccessInfo": {
        "hasExpandedAccess": false
      },
      "startDateStruct": {
        "date": "2022-11-02",
        "type": "ACTUAL"
      },
      "primaryCompletionDateStruct": {
        "date": "2024-08-08",
        "type": "ACTUAL"
      },
      "completionDateStruct": {
        "date": "2024-08-08",
        "type": "ACTUAL"
      },
      "studyFirstSubmitDate": "2022-09-15",
      "studyFirstSubmitQcDate": "2022-09-23",
      "studyFirstPostDateStruct": {
        "date": "2022-09-28",
        "type": "ACTUAL"
      },
      "resultsFirstSubmitDate": "2024-09-06",
      "resultsFirstSubmitQcDate": "2024-10-09",
      "resultsFirstPostDateStruct": {
        "date": "2024-10-10",
        "type": "ACTUAL"
      },
      "lastUpdateSubmitDate": "2024-10-09",
      "lastUpdatePostDateStruct": {
        "date": "2024-10-10",
        "type": "ACTUAL"
      }
    },
    "sponsorCollaboratorsModule": {
      "responsibleParty": {
        "type": "SPONSOR"
      },
      "leadSponsor": {
        "name": "Aerovate Therapeutics",
        "class": "INDUSTRY"
      }
    },
    "oversightModule": {
      "oversightHasDmc": true,
      "isFdaRegulatedDrug": true,
      "isFdaRegulatedDevice": false
    },
    "descriptionModule": {
      "briefSummary": "IMPAHCT-FUL: Inhaled Imatinib Pulmonary Arterial Hypertension Clinical Trial - Follow Up Long Term Extension (LTE) Trial was a follow up study to establish the long-term safety of AV-101. Subjects who successfully completed the 24-week placebo-controlled parent trial (AV-101-002, NCT#05036135) were offered the opportunity to continue into this LTE study. Subjects who enrolled in the study were to receive one of three active AV-101 doses until such time as the optimal dose was selected in the parent study."
    },
    "conditionsModule": {
      "conditions": [
        "Pulmonary Arterial Hypertension"
      ],
      "keywords": [
        "Pulmonary Arterial Hypertension",
        "Lungs",
        "Pulmonary",
        "PAH",
        "AV-101",
        "imatinib",
        "IMPAHCT",
        "IMPAHCT-FUL"
      ]
    },
    "designModule": {
      "studyType": "INTERVENTIONAL",
      "phases": [
        "PHASE3"
      ],
      "designInfo": {
        "allocation": "RANDOMIZED",
        "interventionModel": "PARALLEL",
        "primaryPurpose": "TREATMENT",
        "maskingInfo": {
          "masking": "QUADRUPLE",
          "whoMasked": [
            "PARTICIPANT",
            "CARE_PROVIDER",
            "INVESTIGATOR",
            "OUTCOMES_ASSESSOR"
          ]
        }
      },
      "enrollmentInfo": {
        "count": 186,
        "type": "ACTUAL"
      }
    },
    "armsInterventionsModule": {
      "armGroups": [
        {
          "label": "Placebo Crossover AV-101 10 mg",
          "type": "EXPERIMENTAL",
          "description": "Participants who previously received placebo in AV-101-002 received AV-101 (imatinib) 10 milligrams (mg) administered twice daily (BID) via dry powder inhalation.",
          "interventionNames": [
            "Drug: AV-101"
          ]
        },
        {
          "label": "Placebo Crossover AV-101 35 mg",
          "type": "EXPERIMENTAL",
          "description": "Participants who previously received placebo in AV-101-002 received AV-101 (imatinib) 35 mg administered BID via dry powder inhalation.",
          "interventionNames": [
            "Drug: AV-101"
          ]
        },
        {
          "label": "Placebo Crossover AV-101 70 mg",
          "type": "EXPERIMENTAL",
          "description": "Participants who previously received placebo in AV-101-002 received AV-101 (imatinib) 70 mg administered BID via dry powder inhalation.",
          "interventionNames": [
            "Drug: AV-101"
          ]
        },
        {
          "label": "Continuing AV-101 10 mg",
          "type": "EXPERIMENTAL",
          "description": "Participants who previously received AV-101 10 mg in AV-101-002 received AV-101 (imatinib) 10 mg administered BID via dry powder inhalation.",
          "interventionNames": [
            "Drug: AV-101"
          ]
        },
        {
          "label": "Continuing AV-101 35 mg",
          "type": "EXPERIMENTAL",
          "description": "Participants who previously received AV-101 35 mg in AV-101-002 received AV-101 (imatinib) 35 mg administered BID via dry powder inhalation.",
          "interventionNames": [
            "Drug: AV-101"
          ]
        },
        {
          "label": "Continuing AV-101 70 mg",
          "type": "EXPERIMENTAL",
          "description": "Participants who previously received AV-101 70 mg in AV-101-002 received AV-101 (imatinib) 70 mg administered BID via dry powder inhalation.",
          "interventionNames": [
            "Drug: AV-101"
          ]
        }
      ],
      "interventions": [
        {
          "type": "DRUG",
          "name": "AV-101",
          "description": "AV-101 (imatinib) administered via dry powder inhalation",
          "armGroupLabels": [
            "Continuing AV-101 10 mg",
            "Continuing AV-101 35 mg",
            "Continuing AV-101 70 mg",
            "Placebo Crossover AV-101 10 mg",
            "Placebo Crossover AV-101 35 mg",
            "Placebo Crossover AV-101 70 mg"
          ]
        }
      ]
    },
    "outcomesModule": {
      "primaryOutcomes": [
        {
          "measure": "Number of Participants With Treatment-emergent Adverse Events",
          "description": "An Adverse Event (AE) was defined as any untoward medical occurrence in a participant who received study drug without regard to possibility of causal relationship. Serious Adverse Events (SAEs) were defined as death, a life-threatening AE, inpatient hospitalization or prolongation of existing hospitalization, persistent or significant disability or incapacity, a congenital anomaly or birth defect, or an important medical event that jeopardized participant and required medical intervention to prevent 1 of the outcomes listed in this definition. A summary of other non-serious AEs and all serious AEs, regardless of causality is located in Reported AE section.",
          "timeFrame": "From date of first dose to 30 days after date of last dose (up to approximately 21 months)"
        }
      ]
    },
    "eligibilityModule": {
      "eligibilityCriteria": "Key Inclusion Criteria:\n\nTo be eligible, a participant is required to be or have:\n\n* Consented to participate in the LTE and has successfully completed the placebo-controlled 24-week Study AV-101-002.\n\nKey Exclusion Criteria:\n\nSubjects meeting any of the following criteria:\n\n* The Investigator believes that it would not be in the best interest of the subject to be included in the LTE e.g., for clinical or social reasons.\n* Subjects who were not compliant with study medication in AV-101-002 as assessed by the Investigator.",
      "healthyVolunteers": false,
      "sex": "ALL",
      "minimumAge": "18 Years",
      "maximumAge": "75 Years",
      "stdAges": [
        "ADULT",
        "OLDER_ADULT"
      ]
    },
    "contactsLocationsModule": {
      "locations": [
        {
          "facility": "Arizona Pulmonary Specialist. LTD.",
          "city": "Phoenix",
          "state": "Arizona",
          "zip": "85012",
          "country": "United States",
          "geoPoint": {
            "lat": 33.44838,
            "lon": -112.07404
          }
        },
        {
          "facility": "University of Arizona, Department of Medicine",
          "city": "Tucson",
          "state": "Arizona",
          "zip": "85724",
          "country": "United States",
          "geoPoint": {
            "lat": 32.22174,
            "lon": -110.92648
          }
        },
        {
          "facility": "UCLA/David Geffen School of Medicine-Pulmonary and Criticial Care",
          "city": "Los Angeles",
          "state": "California",
          "zip": "90024",
          "country": "United States",
          "geoPoint": {
            "lat": 34.05223,
            "lon": -118.24368
          }
        },
        {
          "facility": "Kaiser Permanente - Los Angeles Medical Center",
          "city": "Los Angeles",
          "state": "California",
          "zip": "90027",
          "country": "United States",
          "geoPoint": {
            "lat": 34.05223,
            "lon": -118.24368
          }
        },
        {
          "facility": "UC Davis Medical Center",
          "city": "Sacramento",
          "state": "California",
          "zip": "95817",
          "country": "United States",
          "geoPoint": {
            "lat": 38.58157,
            "lon": -121.4944
          }
        },
        {
          "facility": "University of California",
          "city": "San Francisco",
          "state": "California",
          "zip": "94143",
          "country": "United States",
          "geoPoint": {
            "lat": 37.77493,
            "lon": -122.41942
          }
        },
        {
          "facility": "GW Medical Faculty Associates",
          "city": "Washington",
          "state": "District of Columbia",
          "zip": "20037",
          "country": "United States",
          "geoPoint": {
            "lat": 38.89511,
            "lon": -77.03637
          }
        },
        {
          "facility": "Mayo Clinic Florida",
          "city": "Jacksonville",
          "state": "Florida",
          "zip": "32224",
          "country": "United States",
          "geoPoint": {
            "lat": 30.33218,
            "lon": -81.65565
          }
        },
        {
          "facility": "Emory University",
          "city": "Atlanta",
          "state": "Georgia",
          "zip": "30322",
          "country": "United States",
          "geoPoint": {
            "lat": 33.749,
            "lon": -84.38798
          }
        },
        {
          "facility": "Indiana University Health",
          "city": "Indianapolis",
          "state": "Indiana",
          "zip": "46202",
          "country": "United States",
          "geoPoint": {
            "lat": 39.76838,
            "lon": -86.15804
          }
        },
        {
          "facility": "Tufts Medical Center, Inc.",
          "city": "Boston",
          "state": "Massachusetts",
          "zip": "02111",
          "country": "United States",
          "geoPoint": {
            "lat": 42.35843,
            "lon": -71.05977
          }
        },
        {
          "facility": "University of Michigan",
          "city": "Ann Arbor",
          "state": "Michigan",
          "zip": "48109",
          "country": "United States",
          "geoPoint": {
            "lat": 42.27756,
            "lon": -83.74088
          }
        },
        {
          "facility": "Washington University School of Medicine",
          "city": "Saint Louis",
          "state": "Missouri",
          "zip": "63110",
          "country": "United States",
          "geoPoint": {
            "lat": 38.62727,
            "lon": -90.19789
          }
        },
        {
          "facility": "Ohio State University",
          "city": "Columbus",
          "state": "Ohio",
          "zip": "43210",
          "country": "United States",
          "geoPoint": {
            "lat": 39.96118,
            "lon": -82.99879
          }
        },
        {
          "facility": "UPMC Presbyterian Hospital",
          "city": "Pittsburgh",
          "state": "Pennsylvania",
          "zip": "15213",
          "country": "United States",
          "geoPoint": {
            "lat": 40.44062,
            "lon": -79.99589
          }
        },
        {
          "facility": "Vanderbilt University Medical Center",
          "city": "Nashville",
          "state": "Tennessee",
          "zip": "37232",
          "country": "United States",
          "geoPoint": {
            "lat": 36.16589,
            "lon": -86.78444
          }
        },
        {
          "facility": "Cardiologia Palmero",
          "city": "Buenos Aires",
          "zip": "1425",
          "country": "Argentina",
          "geoPoint": {
            "lat": -34.61315,
            "lon": -58.37723
          }
        },
        {
          "facility": "Nexo Salud Investigación Clínica",
          "city": "Buenos Aires",
          "zip": "1425",
          "country": "Argentina",
          "geoPoint": {
            "lat": -34.61315,
            "lon": -58.37723
          }
        },
        {
          "facility": "Sanatorio de la Trinidad Mitre",
          "city": "Buenos Aires",
          "zip": "C1039AAO",
          "country": "Argentina",
          "geoPoint": {
            "lat": -34.61315,
            "lon": -58.37723
          }
        },
        {
          "facility": "Insituto Medico DAMIC",
          "city": "Córdoba",
          "zip": "5009",
          "country": "Argentina",
          "geoPoint": {
            "lat": -31.4135,
            "lon": -64.18105
          }
        },
        {
          "facility": "Hospital Dr. Jose Maria Cullen",
          "city": "Santa Fe",
          "zip": "S3000EOZ",
          "country": "Argentina",
          "geoPoint": {
            "lat": -31.63333,
            "lon": -60.7
          }
        },
        {
          "facility": "Royal Prince Alfred Hospital",
          "city": "Camperdown",
          "state": "New South Wales",
          "zip": "2050",
          "country": "Australia",
          "geoPoint": {
            "lat": -33.88965,
            "lon": 151.17642
          }
        },
        {
          "facility": "Sunshine Coast University Hospital",
          "city": "Birtinya",
          "state": "Queensland",
          "zip": "4575",
          "country": "Australia",
          "geoPoint": {
            "lat": -26.74322,
            "lon": 153.11913
          }
        },
        {
          "facility": "The Prince Charles Hospital",
          "city": "Chermside",
          "state": "Queensland",
          "zip": "4032",
          "country": "Australia",
          "geoPoint": {
            "lat": -27.38472,
            "lon": 153.03062
          }
        },
        {
          "facility": "The Alfred Hospital",
          "city": "Melbourne",
          "state": "Victoria",
          "zip": "3004",
          "country": "Australia",
          "geoPoint": {
            "lat": -37.814,
            "lon": 144.96332
          }
        },
        {
          "facility": "Cliniques Universitaires de Bruxelles Hopital Erasme",
          "city": "Bruxelles",
          "zip": "1070",
          "country": "Belgium",
          "geoPoint": {
            "lat": 50.85045,
            "lon": 4.34878
          }
        },
        {
          "facility": "UZ Leuven",
          "city": "Leuven",
          "zip": "3000",
          "country": "Belgium",
          "geoPoint": {
            "lat": 50.87959,
            "lon": 4.70093
          }
        },
        {
          "facility": "University of Alberta Hospital",
          "city": "Edmonton",
          "state": "Alberta",
          "zip": "T6G 2B7",
          "country": "Canada",
          "geoPoint": {
            "lat": 53.55014,
            "lon": -113.46871
          }
        },
        {
          "facility": "London Health Science Centre",
          "city": "London",
          "state": "Ontario",
          "zip": "N6A 5W9",
          "country": "Canada",
          "geoPoint": {
            "lat": 42.98339,
            "lon": -81.23304
          }
        },
        {
          "facility": "Jewish General Hospital",
          "city": "Montréal",
          "state": "Quebec",
          "zip": "H3T 1E2",
          "country": "Canada",
          "geoPoint": {
            "lat": 45.50884,
            "lon": -73.58781
          }
        },
        {
          "facility": "Centro de Investigaciones Clinicas de la Universidad Catolica",
          "city": "Santiago",
          "zip": "8330024",
          "country": "Chile",
          "geoPoint": {
            "lat": -33.45694,
            "lon": -70.64827
          }
        },
        {
          "facility": "Peking Union Medical College Hospital",
          "city": "Beijing",
          "zip": "100730",
          "country": "China",
          "geoPoint": {
            "lat": 39.9075,
            "lon": 116.39723
          }
        },
        {
          "facility": "Chongqing Medical University - The First Affiliated Hospital",
          "city": "Chongqing",
          "zip": "40016",
          "country": "China",
          "geoPoint": {
            "lat": 29.56278,
            "lon": 106.55278
          }
        },
        {
          "facility": "Guangdong Provincial People's Hospital",
          "city": "Guangdong",
          "zip": "510000",
          "country": "China"
        },
        {
          "facility": "Central South University - The Second Xiangya Hospital",
          "city": "Hunan",
          "zip": "410011",
          "country": "China"
        },
        {
          "facility": "Yanan Hospital of Kunming City",
          "city": "Kunming",
          "zip": "650051",
          "country": "China",
          "geoPoint": {
            "lat": 25.03889,
            "lon": 102.71833
          }
        },
        {
          "facility": "Gansu Provincial People's Hospital",
          "city": "Lanzhou",
          "zip": "730000",
          "country": "China",
          "geoPoint": {
            "lat": 36.05701,
            "lon": 103.83987
          }
        },
        {
          "facility": "Southeast University (SEU) - Zhongda Hospital",
          "city": "Nanjing",
          "zip": "210009",
          "country": "China",
          "geoPoint": {
            "lat": 32.06167,
            "lon": 118.77778
          }
        },
        {
          "facility": "Tianjin Medical University General Hospital",
          "city": "Tianjin",
          "zip": "300052",
          "country": "China",
          "geoPoint": {
            "lat": 39.14222,
            "lon": 117.17667
          }
        },
        {
          "facility": "Instituto Neumológico del Oriente S.A.",
          "city": "Floridablanca",
          "zip": "20-97",
          "country": "Colombia",
          "geoPoint": {
            "lat": 7.06222,
            "lon": -73.08644
          }
        },
        {
          "facility": "Groupement Hospitalier Sud - Hôpital Bicêtre",
          "city": "Le Kremlin-Bicêtre",
          "zip": "94275",
          "country": "France",
          "geoPoint": {
            "lat": 48.81471,
            "lon": 2.36073
          }
        },
        {
          "facility": "Hopital Arnaud de Villeneuve",
          "city": "Montpellier",
          "zip": "34295",
          "country": "France",
          "geoPoint": {
            "lat": 43.61092,
            "lon": 3.87723
          }
        },
        {
          "facility": "Les Hôpitaux Universitaires de Strasbourg",
          "city": "Strasbourg",
          "zip": "67091",
          "country": "France",
          "geoPoint": {
            "lat": 48.58392,
            "lon": 7.74553
          }
        },
        {
          "facility": "Universitaetsklinikum Carl Gustav Carus TU Dresden",
          "city": "Dresden",
          "zip": "1307",
          "country": "Germany",
          "geoPoint": {
            "lat": 51.05089,
            "lon": 13.73832
          }
        },
        {
          "facility": "Universitaetsklinikum Giessen und Marburg GmbH Standort Giessen",
          "city": "Gießen",
          "zip": "35392",
          "country": "Germany",
          "geoPoint": {
            "lat": 50.58727,
            "lon": 8.67554
          }
        },
        {
          "facility": "Universitaetsklinikum Heidelberg",
          "city": "Heidelberg",
          "zip": "69126",
          "country": "Germany",
          "geoPoint": {
            "lat": 49.40768,
            "lon": 8.69079
          }
        },
        {
          "facility": "Hadassah University Hospital - Ein Kerem",
          "city": "Jerusalem",
          "zip": "91999",
          "country": "Israel",
          "geoPoint": {
            "lat": 31.76904,
            "lon": 35.21633
          }
        },
        {
          "facility": "Azienda Ospedaliero Universitaria Ospedali Riuniti - Foggia",
          "city": "Foggia",
          "zip": "71122",
          "country": "Italy",
          "geoPoint": {
            "lat": 41.45845,
            "lon": 15.55188
          }
        },
        {
          "facility": "Ospedale San Giuseppe - Fatebenefratelli",
          "city": "Milan",
          "zip": "20123",
          "country": "Italy",
          "geoPoint": {
            "lat": 45.46427,
            "lon": 9.18951
          }
        },
        {
          "facility": "Fondazione IRCCS San Gerardo Dei Tintori",
          "city": "Monza",
          "zip": "20900",
          "country": "Italy",
          "geoPoint": {
            "lat": 45.58005,
            "lon": 9.27246
          }
        },
        {
          "facility": "Istituto Mediterraneo per i Trapianti e Terapie ad Alta Specializzazione",
          "city": "Palermo",
          "zip": "90127",
          "country": "Italy",
          "geoPoint": {
            "lat": 38.13205,
            "lon": 13.33561
          }
        },
        {
          "facility": "Fondazione IRCCS Policlinico San Matteo",
          "city": "Pavia",
          "zip": "27100",
          "country": "Italy",
          "geoPoint": {
            "lat": 45.19205,
            "lon": 9.15917
          }
        },
        {
          "facility": "Azienda Ospedaliera Universitaria Policlinico Umberto I",
          "city": "Rome",
          "zip": "137",
          "country": "Italy",
          "geoPoint": {
            "lat": 41.89193,
            "lon": 12.51133
          }
        },
        {
          "facility": "Pauls Stradins Clinical University Hospital",
          "city": "Riga",
          "zip": "1002",
          "country": "Latvia",
          "geoPoint": {
            "lat": 56.946,
            "lon": 24.10589
          }
        },
        {
          "facility": "CICUM San Miguel",
          "city": "Guadalajara",
          "state": "Jalisco",
          "zip": "44160",
          "country": "Mexico",
          "geoPoint": {
            "lat": 20.66682,
            "lon": -103.39182
          }
        },
        {
          "facility": "Unidad de Investigacion Clinica en Medicina S.C.",
          "city": "Monterrey",
          "state": "Nuevo León",
          "zip": "64718",
          "country": "Mexico",
          "geoPoint": {
            "lat": 25.67507,
            "lon": -100.31847
          }
        },
        {
          "facility": "Krakowski Szpital Specjalistyczny im. Jana Pawla II",
          "city": "Kraków",
          "zip": "31-202",
          "country": "Poland",
          "geoPoint": {
            "lat": 50.06143,
            "lon": 19.93658
          }
        },
        {
          "facility": "Szpital Kliniczny Przemienienia Pańskiego UM im. Marcinkowskiego",
          "city": "Poznań",
          "zip": "61-848",
          "country": "Poland",
          "geoPoint": {
            "lat": 52.40692,
            "lon": 16.92993
          }
        },
        {
          "facility": "Wojewódzki Specjalistyczny Szpital im. Dr. Wł. Biegańskiego w Łodzi",
          "city": "Łódź",
          "zip": "91-347",
          "country": "Poland",
          "geoPoint": {
            "lat": 51.75,
            "lon": 19.46667
          }
        },
        {
          "facility": "Hospital Garcia de Orta, EPE",
          "city": "Almada",
          "zip": "2805-267",
          "country": "Portugal",
          "geoPoint": {
            "lat": 38.67902,
            "lon": -9.1569
          }
        },
        {
          "facility": "Hospital Pulido Valente",
          "city": "Lisboa",
          "zip": "1769-001",
          "country": "Portugal",
          "geoPoint": {
            "lat": 38.71667,
            "lon": -9.13333
          }
        },
        {
          "facility": "National University Hospital",
          "city": "Singapore",
          "zip": "119074",
          "country": "Singapore",
          "geoPoint": {
            "lat": 1.28967,
            "lon": 103.85007
          }
        },
        {
          "facility": "Tan Tock Seng Hospital",
          "city": "Singapore",
          "zip": "308433",
          "country": "Singapore",
          "geoPoint": {
            "lat": 1.28967,
            "lon": 103.85007
          }
        },
        {
          "facility": "Center of Chest Disease Johannesburg",
          "city": "Johannesburg",
          "zip": "2193",
          "country": "South Africa",
          "geoPoint": {
            "lat": -26.20227,
            "lon": 28.04363
          }
        },
        {
          "facility": "Hospital Universitari Vall d'Hebron",
          "city": "Barcelona",
          "zip": "08035",
          "country": "Spain",
          "geoPoint": {
            "lat": 41.38879,
            "lon": 2.15899
          }
        },
        {
          "facility": "Hosp. Universitario Gran Canaria Doctor Negrin",
          "city": "Las Palmas De Gran Canaria",
          "zip": "35010",
          "country": "Spain",
          "geoPoint": {
            "lat": 28.09973,
            "lon": -15.41343
          }
        },
        {
          "facility": "Hospital 12 de Octubre",
          "city": "Madrid",
          "zip": "28014",
          "country": "Spain",
          "geoPoint": {
            "lat": 40.4165,
            "lon": -3.70256
          }
        },
        {
          "facility": "Hospital Universitario Virgen de la Victoria",
          "city": "Málaga",
          "zip": "29071",
          "country": "Spain",
          "geoPoint": {
            "lat": 36.72016,
            "lon": -4.42034
          }
        },
        {
          "facility": "Hospital universtario de Salamanca",
          "city": "Salamanca",
          "zip": "37007",
          "country": "Spain",
          "geoPoint": {
            "lat": 40.96882,
            "lon": -5.66388
          }
        },
        {
          "facility": "Hosp. Universitario Marques de Valdecilla",
          "city": "Santander",
          "zip": "39003",
          "country": "Spain",
          "geoPoint": {
            "lat": 43.46472,
            "lon": -3.80444
          }
        },
        {
          "facility": "Hospital Universitario de Toledo",
          "city": "Toledo",
          "zip": "45007",
          "country": "Spain",
          "geoPoint": {
            "lat": 39.8581,
            "lon": -4.02263
          }
        },
        {
          "facility": "Imperial College Healthcare NHS Trust",
          "city": "London",
          "zip": "W12 0HS",
          "country": "United Kingdom",
          "geoPoint": {
            "lat": 51.50853,
            "lon": -0.12574
          }
        }
      ]
    }
  },
  "resultsSection": {
    "participantFlowModule": {
      "groups": [
        {
          "id": "FG000",
          "title": "Placebo Crossover AV-101 10 mg",
          "description": "Participants who previously received placebo in AV-101-002 received AV-101 (imatinib) 10 milligrams (mg) administered twice daily (BID) via dry powder inhalation."
        },
        {
          "id": "FG001",
          "title": "Placebo Crossover AV-101 35 mg",
          "description": "Participants who previously received placebo in AV-101-002 received AV-101 (imatinib) 35 mg administered BID via dry powder inhalation."
        },
        {
          "id": "FG002",
          "title": "Placebo Crossover AV-101 70 mg",
          "description": "Participants who previously received placebo in AV-101-002 received AV-101 (imatinib) 70 mg administered BID via dry powder inhalation."
        },
        {
          "id": "FG003",
          "title": "Continuing AV-101 10 mg",
          "description": "Participants who previously received AV-101 10 mg in AV-101-002 received AV-101 (imatinib) 10 mg administered BID via dry powder inhalation."
        },
        {
          "id": "FG004",
          "title": "Continuing AV-101 35 mg",
          "description": "Participants who previously received AV-101 35 mg in AV-101-002 received AV-101 (imatinib) 35 mg administered BID via dry powder inhalation."
        },
        {
          "id": "FG005",
          "title": "Continuing AV-101 70 mg",
          "description": "Participants who previously received AV-101 70 mg in AV-101-002 received AV-101 (imatinib) 70 mg administered BID via dry powder inhalation."
        }
      ],
      "periods": [
        {
          "title": "Overall Study",
          "milestones": [
            {
              "type": "STARTED",
              "achievements": [
                {
                  "groupId": "FG000",
                  "numSubjects": "18"
                },
                {
                  "groupId": "FG001",
                  "numSubjects": "18"
                },
                {
                  "groupId": "FG002",
                  "numSubjects": "16"
                },
                {
                  "groupId": "FG003",
                  "numSubjects": "45"
                },
                {
                  "groupId": "FG004",
                  "numSubjects": "48"
                },
                {
                  "groupId": "FG005",
                  "numSubjects": "41"
                }
              ]
            },
            {
              "type": "Received at Least 1 Dose of Study Drug",
              "achievements": [
                {
                  "groupId": "FG000",
                  "numSubjects": "18"
                },
                {
                  "groupId": "FG001",
                  "numSubjects": "18"
                },
                {
                  "groupId": "FG002",
                  "numSubjects": "16"
                },
                {
                  "groupId": "FG003",
                  "numSubjects": "45"
                },
                {
                  "groupId": "FG004",
                  "numSubjects": "48"
                },
                {
                  "groupId": "FG005",
                  "numSubjects": "41"
                }
              ]
            },
            {
              "type": "COMPLETED",
              "comment": "\"Completed\" refers to participants who completed the study",
              "achievements": [
                {
                  "groupId": "FG000",
                  "numSubjects": "0"
                },
                {
                  "groupId": "FG001",
                  "numSubjects": "0"
                },
                {
                  "groupId": "FG002",
                  "numSubjects": "0"
                },
                {
                  "groupId": "FG003",
                  "numSubjects": "0"
                },
                {
                  "groupId": "FG004",
                  "numSubjects": "0"
                },
                {
                  "groupId": "FG005",
                  "numSubjects": "0"
                }
              ]
            },
            {
              "type": "NOT COMPLETED",
              "achievements": [
                {
                  "groupId": "FG000",
                  "numSubjects": "18"
                },
                {
                  "groupId": "FG001",
                  "numSubjects": "18"
                },
                {
                  "groupId": "FG002",
                  "numSubjects": "16"
                },
                {
                  "groupId": "FG003",
                  "numSubjects": "45"
                },
                {
                  "groupId": "FG004",
                  "numSubjects": "48"
                },
                {
                  "groupId": "FG005",
                  "numSubjects": "41"
                }
              ]
            }
          ],
          "dropWithdraws": [
            {
              "type": "Death",
              "reasons": [
                {
                  "groupId": "FG000",
                  "numSubjects": "0"
                },
                {
                  "groupId": "FG001",
                  "numSubjects": "0"
                },
                {
                  "groupId": "FG002",
                  "numSubjects": "0"
                },
                {
                  "groupId": "FG003",
                  "numSubjects": "2"
                },
                {
                  "groupId": "FG004",
                  "numSubjects": "1"
                },
                {
                  "groupId": "FG005",
                  "numSubjects": "1"
                }
              ]
            },
            {
              "type": "Physician Decision",
              "reasons": [
                {
                  "groupId": "FG000",
                  "numSubjects": "1"
                },
                {
                  "groupId": "FG001",
                  "numSubjects": "1"
                },
                {
                  "groupId": "FG002",
                  "numSubjects": "2"
                },
                {
                  "groupId": "FG003",
                  "numSubjects": "3"
                },
                {
                  "groupId": "FG004",
                  "numSubjects": "0"
                },
                {
                  "groupId": "FG005",
                  "numSubjects": "2"
                }
              ]
            },
            {
              "type": "Study terminated by sponsor",
              "reasons": [
                {
                  "groupId": "FG000",
                  "numSubjects": "17"
                },
                {
                  "groupId": "FG001",
                  "numSubjects": "17"
                },
                {
                  "groupId": "FG002",
                  "numSubjects": "14"
                },
                {
                  "groupId": "FG003",
                  "numSubjects": "40"
                },
                {
                  "groupId": "FG004",
                  "numSubjects": "45"
                },
                {
                  "groupId": "FG005",
                  "numSubjects": "37"
                }
              ]
            },
            {
              "type": "Protocol Violation",
              "reasons": [
                {
                  "groupId": "FG000",
                  "numSubjects": "0"
                },
                {
                  "groupId": "FG001",
                  "numSubjects": "0"
                },
                {
                  "groupId": "FG002",
                  "numSubjects": "0"
                },
                {
                  "groupId": "FG003",
                  "numSubjects": "0"
                },
                {
                  "groupId": "FG004",
                  "numSubjects": "0"
                },
                {
                  "groupId": "FG005",
                  "numSubjects": "1"
                }
              ]
            },
            {
              "type": "Withdrawal by Subject",
              "reasons": [
                {
                  "groupId": "FG000",
                  "numSubjects": "0"
                },
                {
                  "groupId": "FG001",
                  "numSubjects": "0"
                },
                {
                  "groupId": "FG002",
                  "numSubjects": "0"
                },
                {
                  "groupId": "FG003",
                  "numSubjects": "0"
                },
                {
                  "groupId": "FG004",
                  "numSubjects": "2"
                },
                {
                  "groupId": "FG005",
                  "numSubjects": "0"
                }
              ]
            }
          ]
        }
      ]
    },
    "baselineCharacteristicsModule": {
      "populationDescription": "The Intent-to-treat (ITT) analysis set included all randomized participants.",
      "groups": [
        {
          "id": "BG000",
          "title": "Placebo Crossover AV-101 10 mg",
          "description": "Participants who previously received placebo in AV-101-002 received AV-101 (imatinib) 10 mg administered BID via dry powder inhalation."
        },
        {
          "id": "BG001",
          "title": "Placebo Crossover AV-101 35 mg",
          "description": "Participants who previously received placebo in AV-101-002 received AV-101 (imatinib) 35 mg administered BID via dry powder inhalation."
        },
        {
          "id": "BG002",
          "title": "Placebo Crossover AV-101 70 mg",
          "description": "Participants who previously received placebo in AV-101-002 received AV-101 (imatinib) 70 mg administered BID via dry powder inhalation."
        },
        {
          "id": "BG003",
          "title": "Continuing AV-101 10 mg",
          "description": "Participants who previously received AV-101 10 mg in AV-101-002 received AV-101 (imatinib) 10 mg administered BID via dry powder inhalation."
        },
        {
          "id": "BG004",
          "title": "Continuing AV-101 35 mg",
          "description": "Participants who previously received AV-101 35 mg in AV-101-002 received AV-101 (imatinib) 35 mg administered BID via dry powder inhalation."
        },
        {
          "id": "BG005",
          "title": "Continuing AV-101 70 mg",
          "description": "Participants who previously received AV-101 70 mg in AV-101-002 received AV-101 (imatinib) 70 mg administered BID via dry powder inhalation."
        },
        {
          "id": "BG006",
          "title": "Total",
          "description": "Total of all reporting groups"
        }
      ],
      "denoms": [
        {
          "units": "Participants",
          "counts": [
            {
              "groupId": "BG000",
              "value": "18"
            },
            {
              "groupId": "BG001",
              "value": "18"
            },
            {
              "groupId": "BG002",
              "value": "16"
            },
            {
              "groupId": "BG003",
              "value": "45"
            },
            {
              "groupId": "BG004",
              "value": "48"
            },
            {
              "groupId": "BG005",
              "value": "41"
            },
            {
              "groupId": "BG006",
              "value": "186"
            }
          ]
        }
      ],
      "measures": [
        {
          "title": "Age, Continuous",
          "paramType": "MEAN",
          "dispersionType": "STANDARD_DEVIATION",
          "unitOfMeasure": "years",
          "classes": [
            {
              "categories": [
                {
                  "measurements": [
                    {
                      "groupId": "BG000",
                      "value": "49.1",
                      "spread": "12.45"
                    },
                    {
                      "groupId": "BG001",
                      "value": "45.9",
                      "spread": "13.17"
                    },
                    {
                      "groupId": "BG002",
                      "value": "47.9",
                      "spread": "11.02"
                    },
                    {
                      "groupId": "BG003",
                      "value": "45.5",
                      "spread": "12.70"
                    },
                    {
                      "groupId": "BG004",
                      "value": "47.4",
                      "spread": "13.98"
                    },
                    {
                      "groupId": "BG005",
                      "value": "46.4",
                      "spread": "12.80"
                    },
                    {
                      "groupId": "BG006",
                      "value": "46.8",
                      "spread": "12.83"
                    }
                  ]
                }
              ]
            }
          ]
        },
        {
          "title": "Sex: Female, Male",
          "paramType": "COUNT_OF_PARTICIPANTS",
          "unitOfMeasure": "Participants",
          "classes": [
            {
              "categories": [
                {
                  "title": "Female",
                  "measurements": [
                    {
                      "groupId": "BG000",
                      "value": "15"
                    },
                    {
                      "groupId": "BG001",
                      "value": "15"
                    },
                    {
                      "groupId": "BG002",
                      "value": "13"
                    },
                    {
                      "groupId": "BG003",
                      "value": "34"
                    },
                    {
                      "groupId": "BG004",
                      "value": "38"
                    },
                    {
                      "groupId": "BG005",
                      "value": "35"
                    },
                    {
                      "groupId": "BG006",
                      "value": "150"
                    }
                  ]
                },
                {
                  "title": "Male",
                  "measurements": [
                    {
                      "groupId": "BG000",
                      "value": "3"
                    },
                    {
                      "groupId": "BG001",
                      "value": "3"
                    },
                    {
                      "groupId": "BG002",
                      "value": "3"
                    },
                    {
                      "groupId": "BG003",
                      "value": "11"
                    },
                    {
                      "groupId": "BG004",
                      "value": "10"
                    },
                    {
                      "groupId": "BG005",
                      "value": "6"
                    },
                    {
                      "groupId": "BG006",
                      "value": "36"
                    }
                  ]
                }
              ]
            }
          ]
        },
        {
          "title": "Ethnicity (NIH/OMB)",
          "paramType": "COUNT_OF_PARTICIPANTS",
          "unitOfMeasure": "Participants",
          "classes": [
            {
              "categories": [
                {
                  "title": "Hispanic or Latino",
                  "measurements": [
                    {
                      "groupId": "BG000",
                      "value": "3"
                    },
                    {
                      "groupId": "BG001",
                      "value": "3"
                    },
                    {
                      "groupId": "BG002",
                      "value": "3"
                    },
                    {
                      "groupId": "BG003",
                      "value": "8"
                    },
                    {
                      "groupId": "BG004",
                      "value": "10"
                    },
                    {
                      "groupId": "BG005",
                      "value": "12"
                    },
                    {
                      "groupId": "BG006",
                      "value": "39"
                    }
                  ]
                },
                {
                  "title": "Not Hispanic or Latino",
                  "measurements": [
                    {
                      "groupId": "BG000",
                      "value": "14"
                    },
                    {
                      "groupId": "BG001",
                      "value": "14"
                    },
                    {
                      "groupId": "BG002",
                      "value": "12"
                    },
                    {
                      "groupId": "BG003",
                      "value": "31"
                    },
                    {
                      "groupId": "BG004",
                      "value": "34"
                    },
                    {
                      "groupId": "BG005",
                      "value": "27"
                    },
                    {
                      "groupId": "BG006",
                      "value": "132"
                    }
                  ]
                },
                {
                  "title": "Unknown or Not Reported",
                  "measurements": [
                    {
                      "groupId": "BG000",
                      "value": "1"
                    },
                    {
                      "groupId": "BG001",
                      "value": "1"
                    },
                    {
                      "groupId": "BG002",
                      "value": "1"
                    },
                    {
                      "groupId": "BG003",
                      "value": "6"
                    },
                    {
                      "groupId": "BG004",
                      "value": "4"
                    },
                    {
                      "groupId": "BG005",
                      "value": "2"
                    },
                    {
                      "groupId": "BG006",
                      "value": "15"
                    }
                  ]
                }
              ]
            }
          ]
        },
        {
          "title": "Race (NIH/OMB)",
          "paramType": "COUNT_OF_PARTICIPANTS",
          "unitOfMeasure": "Participants",
          "classes": [
            {
              "categories": [
                {
                  "title": "American Indian or Alaska Native",
                  "measurements": [
                    {
                      "groupId": "BG000",
                      "value": "0"
                    },
                    {
                      "groupId": "BG001",
                      "value": "1"
                    },
                    {
                      "groupId": "BG002",
                      "value": "0"
                    },
                    {
                      "groupId": "BG003",
                      "value": "0"
                    },
                    {
                      "groupId": "BG004",
                      "value": "0"
                    },
                    {
                      "groupId": "BG005",
                      "value": "2"
                    },
                    {
                      "groupId": "BG006",
                      "value": "3"
                    }
                  ]
                },
                {
                  "title": "Asian",
                  "measurements": [
                    {
                      "groupId": "BG000",
                      "value": "2"
                    },
                    {
                      "groupId": "BG001",
                      "value": "8"
                    },
                    {
                      "groupId": "BG002",
                      "value": "3"
                    },
                    {
                      "groupId": "BG003",
                      "value": "11"
                    },
                    {
                      "groupId": "BG004",
                      "value": "12"
                    },
                    {
                      "groupId": "BG005",
                      "value": "9"
                    },
                    {
                      "groupId": "BG006",
                      "value": "45"
                    }
                  ]
                },
                {
                  "title": "Native Hawaiian or Other Pacific Islander",
                  "measurements": [
                    {
                      "groupId": "BG000",
                      "value": "0"
                    },
                    {
                      "groupId": "BG001",
                      "value": "0"
                    },
                    {
                      "groupId": "BG002",
                      "value": "0"
                    },
                    {
                      "groupId": "BG003",
                      "value": "0"
                    },
                    {
                      "groupId": "BG004",
                      "value": "0"
                    },
                    {
                      "groupId": "BG005",
                      "value": "0"
                    },
                    {
                      "groupId": "BG006",
                      "value": "0"
                    }
                  ]
                },
                {
                  "title": "Black or African American",
                  "measurements": [
                    {
                      "groupId": "BG000",
                      "value": "1"
                    },
                    {
                      "groupId": "BG001",
                      "value": "0"
                    },
                    {
                      "groupId": "BG002",
                      "value": "1"
                    },
                    {
                      "groupId": "BG003",
                      "value": "2"
                    },
                    {
                      "groupId": "BG004",
                      "value": "1"
                    },
                    {
                      "groupId": "BG005",
                      "value": "3"
                    },
                    {
                      "groupId": "BG006",
                      "value": "8"
                    }
                  ]
                },
                {
                  "title": "White",
                  "measurements": [
                    {
                      "groupId": "BG000",
                      "value": "15"
                    },
                    {
                      "groupId": "BG001",
                      "value": "8"
                    },
                    {
                      "groupId": "BG002",
                      "value": "11"
                    },
                    {
                      "groupId": "BG003",
                      "value": "27"
                    },
                    {
                      "groupId": "BG004",
                      "value": "31"
                    },
                    {
                      "groupId": "BG005",
                      "value": "24"
                    },
                    {
                      "groupId": "BG006",
                      "value": "116"
                    }
                  ]
                },
                {
                  "title": "More than one race",
                  "measurements": [
                    {
                      "groupId": "BG000",
                      "value": "0"
                    },
                    {
                      "groupId": "BG001",
                      "value": "0"
                    },
                    {
                      "groupId": "BG002",
                      "value": "1"
                    },
                    {
                      "groupId": "BG003",
                      "value": "0"
                    },
                    {
                      "groupId": "BG004",
                      "value": "0"
                    },
                    {
                      "groupId": "BG005",
                      "value": "0"
                    },
                    {
                      "groupId": "BG006",
                      "value": "1"
                    }
                  ]
                },
                {
                  "title": "Unknown or Not Reported",
                  "measurements": [
                    {
                      "groupId": "BG000",
                      "value": "0"
                    },
                    {
                      "groupId": "BG001",
                      "value": "1"
                    },
                    {
                      "groupId": "BG002",
                      "value": "0"
                    },
                    {
                      "groupId": "BG003",
                      "value": "5"
                    },
                    {
                      "groupId": "BG004",
                      "value": "4"
                    },
                    {
                      "groupId": "BG005",
                      "value": "3"
                    },
                    {
                      "groupId": "BG006",
                      "value": "13"
                    }
                  ]
                }
              ]
            }
          ]
        }
      ]
    },
    "outcomeMeasuresModule": {
      "outcomeMeasures": [
        {
          "type": "PRIMARY",
          "title": "Number of Participants With Treatment-emergent Adverse Events",
          "description": "An Adverse Event (AE) was defined as any untoward medical occurrence in a participant who received study drug without regard to possibility of causal relationship. Serious Adverse Events (SAEs) were defined as death, a life-threatening AE, inpatient hospitalization or prolongation of existing hospitalization, persistent or significant disability or incapacity, a congenital anomaly or birth defect, or an important medical event that jeopardized participant and required medical intervention to prevent 1 of the outcomes listed in this definition. A summary of other non-serious AEs and all serious AEs, regardless of causality is located in Reported AE section.",
          "populationDescription": "The Safety Analysis Set included all participants that received at least one dose of study drug.",
          "reportingStatus": "POSTED",
          "paramType": "COUNT_OF_PARTICIPANTS",
          "unitOfMeasure": "Participants",
          "timeFrame": "From date of first dose to 30 days after date of last dose (up to approximately 21 months)",
          "groups": [
            {
              "id": "OG000",
              "title": "Placebo Crossover AV-101 10 mg",
              "description": "Participants who previously received placebo in AV-101-002 received AV-101 (imatinib) 10 mg administered BID via dry powder inhalation."
            },
            {
              "id": "OG001",
              "title": "Placebo Crossover AV-101 35 mg",
              "description": "Participants who previously received placebo in AV-101-002 received AV-101 (imatinib) 35 mg administered BID via dry powder inhalation."
            },
            {
              "id": "OG002",
              "title": "Placebo Crossover AV-101 70 mg",
              "description": "Participants who previously received placebo in AV-101-002 received AV-101 (imatinib) 70 mg administered BID via dry powder inhalation."
            },
            {
              "id": "OG003",
              "title": "Continuing AV-101 10 mg",
              "description": "Participants who previously received AV-101 10 mg in AV-101-002 received AV-101 (imatinib) 10 mg administered BID via dry powder inhalation."
            },
            {
              "id": "OG004",
              "title": "Continuing AV-101 35 mg",
              "description": "Participants who previously received AV-101 35 mg in AV-101-002 received AV-101 (imatinib) 35 mg administered BID via dry powder inhalation."
            },
            {
              "id": "OG005",
              "title": "Continuing AV-101 70 mg",
              "description": "Participants who previously received AV-101 70 mg in AV-101-002 received AV-101 (imatinib) 70 mg administered BID via dry powder inhalation."
            }
          ],
          "denoms": [
            {
              "units": "Participants",
              "counts": [
                {
                  "groupId": "OG000",
                  "value": "18"
                },
                {
                  "groupId": "OG001",
                  "value": "18"
                },
                {
                  "groupId": "OG002",
                  "value": "16"
                },
                {
                  "groupId": "OG003",
                  "value": "45"
                },
                {
                  "groupId": "OG004",
                  "value": "48"
                },
                {
                  "groupId": "OG005",
                  "value": "41"
                }
              ]
            }
          ],
          "classes": [
            {
              "categories": [
                {
                  "measurements": [
                    {
                      "groupId": "OG000",
                      "value": "9"
                    },
                    {
                      "groupId": "OG001",
                      "value": "11"
                    },
                    {
                      "groupId": "OG002",
                      "value": "12"
                    },
                    {
                      "groupId": "OG003",
                      "value": "26"
                    },
                    {
                      "groupId": "OG004",
                      "value": "25"
                    },
                    {
                      "groupId": "OG005",
                      "value": "21"
                    }
                  ]
                }
              ]
            }
          ]
        }
      ]
    },
    "adverseEventsModule": {
      "frequencyThreshold": "5",
      "timeFrame": "From date of first dose to date of last dose plus 30 days (up to approximately 21 months)",
      "description": "The safety analysis set included all participants who received at least one dose of study drug.",
      "eventGroups": [
        {
          "id": "EG000",
          "title": "Placebo Crossover AV-101 10 mg",
          "description": "Participants who previously received placebo in AV-101-002 received AV-101 (imatinib) 10 mg administered BID via dry powder inhalation.",
          "deathsNumAffected": 0,
          "deathsNumAtRisk": 18,
          "seriousNumAffected": 3,
          "seriousNumAtRisk": 18,
          "otherNumAffected": 8,
          "otherNumAtRisk": 18
        },
        {
          "id": "EG001",
          "title": "Placebo Crossover AV-101 35 mg",
          "description": "Participants who previously received placebo in AV-101-002 received AV-101 (imatinib) 35 mg administered BID via dry powder inhalation.",
          "deathsNumAffected": 0,
          "deathsNumAtRisk": 18,
          "seriousNumAffected": 4,
          "seriousNumAtRisk": 18,
          "otherNumAffected": 11,
          "otherNumAtRisk": 18
        },
        {
          "id": "EG002",
          "title": "Placebo Crossover AV-101 70 mg",
          "description": "Participants who previously received placebo in AV-101-002 received AV-101 (imatinib) 70 mg administered BID via dry powder inhalation.",
          "deathsNumAffected": 0,
          "deathsNumAtRisk": 16,
          "seriousNumAffected": 6,
          "seriousNumAtRisk": 16,
          "otherNumAffected": 10,
          "otherNumAtRisk": 16
        },
        {
          "id": "EG003",
          "title": "Continuing AV-101 10 mg",
          "description": "Participants who previously received AV-101 10 mg in AV-101-002 received AV-101 (imatinib) 10 mg administered BID via dry powder inhalation.",
          "deathsNumAffected": 2,
          "deathsNumAtRisk": 45,
          "seriousNumAffected": 12,
          "seriousNumAtRisk": 45,
          "otherNumAffected": 17,
          "otherNumAtRisk": 45
        },
        {
          "id": "EG004",
          "title": "Continuing AV-101 35 mg",
          "description": "Participants who previously received AV-101 35 mg in AV-101-002 received AV-101 (imatinib) 35 mg administered BID via dry powder inhalation.",
          "deathsNumAffected": 1,
          "deathsNumAtRisk": 48,
          "seriousNumAffected": 9,
          "seriousNumAtRisk": 48,
          "otherNumAffected": 19,
          "otherNumAtRisk": 48
        },
        {
          "id": "EG005",
          "title": "Continuing AV-101 70 mg",
          "description": "Participants who previously received AV-101 70 mg in AV-101-002 received AV-101 (imatinib) 70 mg administered BID via dry powder inhalation.",
          "deathsNumAffected": 1,
          "deathsNumAtRisk": 41,
          "seriousNumAffected": 7,
          "seriousNumAtRisk": 41,
          "otherNumAffected": 15,
          "otherNumAtRisk": 41
        }
      ],
      "seriousEvents": [
        {
          "term": "Iron deficiency anaemia",
          "organSystem": "Blood and lymphatic system disorders",
          "sourceVocabulary": "MedDRA 26.0",
          "assessmentType": "SYSTEMATIC_ASSESSMENT",
          "stats": [
            {
              "groupId": "EG000",
              "numAffected": 0,
              "numAtRisk": 18
            },
            {
              "groupId": "EG001",
              "numAffected": 1,
              "numAtRisk": 18
            },
            {
              "groupId": "EG002",
              "numAffected": 0,
              "numAtRisk": 16
            },
            {
              "groupId": "EG003",
              "numAffected": 0,
              "numAtRisk": 45
            },
            {
              "groupId": "EG004",
              "numAffected": 0,
              "numAtRisk": 48
            },
            {
              "groupId": "EG005",
              "numAffected": 0,
              "numAtRisk": 41
            }
          ]
        },
        {
          "term": "Right ventricular failure",
          "organSystem": "Cardiac disorders",
          "sourceVocabulary": "MedDRA 26.0",
          "assessmentType": "SYSTEMATIC_ASSESSMENT",
          "stats": [
            {
              "groupId": "EG000",
              "numAffected": 1,
              "numAtRisk": 18
            },
            {
              "groupId": "EG001",
              "numAffected": 0,
              "numAtRisk": 18
            },
            {
              "groupId": "EG002",
              "numAffected": 0,
              "numAtRisk": 16
            },
            {
              "groupId": "EG003",
              "numAffected": 3,
              "numAtRisk": 45
            },
            {
              "groupId": "EG004",
              "numAffected": 2,
              "numAtRisk": 48
            },
            {
              "groupId": "EG005",
              "numAffected": 2,
              "numAtRisk": 41
            }
          ]
        },
        {
          "term": "Cardiac failure",
          "organSystem": "Cardiac disorders",
          "sourceVocabulary": "MedDRA 26.0",
          "assessmentType": "SYSTEMATIC_ASSESSMENT",
          "stats": [
            {
              "groupId": "EG000",
              "numAffected": 1,
              "numAtRisk": 18
            },
            {
              "groupId": "EG001",
              "numAffected": 0,
              "numAtRisk": 18
            },
            {
              "groupId": "EG002",
              "numAffected": 0,
              "numAtRisk": 16
            },
            {
              "groupId": "EG003",
              "numAffected": 0,
              "numAtRisk": 45
            },
            {
              "groupId": "EG004",
              "numAffected": 0,
              "numAtRisk": 48
            },
            {
              "groupId": "EG005",
              "numAffected": 1,
              "numAtRisk": 41
            }
          ]
        },
        {
          "term": "Cardiac arrest",
          "organSystem": "Cardiac disorders",
          "sourceVocabulary": "MedDRA 26.0",
          "assessmentType": "SYSTEMATIC_ASSESSMENT",
          "stats": [
            {
              "groupId": "EG000",
              "numAffected": 0,
              "numAtRisk": 18
            },
            {
              "groupId": "EG001",
              "numAffected": 0,
              "numAtRisk": 18
            },
            {
              "groupId": "EG002",
              "numAffected": 0,
              "numAtRisk": 16
            },
            {
              "groupId": "EG003",
              "numAffected": 1,
              "numAtRisk": 45
            },
            {
              "groupId": "EG004",
              "numAffected": 0,
              "numAtRisk": 48
            },
            {
              "groupId": "EG005",
              "numAffected": 0,
              "numAtRisk": 41
            }
          ]
        },
        {
          "term": "Cardiac failure acute",
          "organSystem": "Cardiac disorders",
          "sourceVocabulary": "MedDRA 26.0",
          "assessmentType": "SYSTEMATIC_ASSESSMENT",
          "stats": [
            {
              "groupId": "EG000",
              "numAffected": 0,
              "numAtRisk": 18
            },
            {
              "groupId": "EG001",
              "numAffected": 0,
              "numAtRisk": 18
            },
            {
              "groupId": "EG002",
              "numAffected": 0,
              "numAtRisk": 16
            },
            {
              "groupId": "EG003",
              "numAffected": 1,
              "numAtRisk": 45
            },
            {
              "groupId": "EG004",
              "numAffected": 0,
              "numAtRisk": 48
            },
            {
              "groupId": "EG005",
              "numAffected": 0,
              "numAtRisk": 41
            }
          ]
        },
        {
          "term": "Supraventricular tachycardia",
          "organSystem": "Cardiac disorders",
          "sourceVocabulary": "MedDRA 26.0",
          "assessmentType": "SYSTEMATIC_ASSESSMENT",
          "stats": [
            {
              "groupId": "EG000",
              "numAffected": 0,
              "numAtRisk": 18
            },
            {
              "groupId": "EG001",
              "numAffected": 0,
              "numAtRisk": 18
            },
            {
              "groupId": "EG002",
              "numAffected": 0,
              "numAtRisk": 16
            },
            {
              "groupId": "EG003",
              "numAffected": 0,
              "numAtRisk": 45
            },
            {
              "groupId": "EG004",
              "numAffected": 1,
              "numAtRisk": 48
            },
            {
              "groupId": "EG005",
              "numAffected": 0,
              "numAtRisk": 41
            }
          ]
        },
        {
          "term": "Ventricular arrhythmia",
          "organSystem": "Cardiac disorders",
          "sourceVocabulary": "MedDRA 26.0",
          "assessmentType": "SYSTEMATIC_ASSESSMENT",
          "stats": [
            {
              "groupId": "EG000",
              "numAffected": 1,
              "numAtRisk": 18
            },
            {
              "groupId": "EG001",
              "numAffected": 0,
              "numAtRisk": 18
            },
            {
              "groupId": "EG002",
              "numAffected": 0,
              "numAtRisk": 16
            },
            {
              "groupId": "EG003",
              "numAffected": 0,
              "numAtRisk": 45
            },
            {
              "groupId": "EG004",
              "numAffected": 0,
              "numAtRisk": 48
            },
            {
              "groupId": "EG005",
              "numAffected": 0,
              "numAtRisk": 41
            }
          ]
        },
        {
          "term": "Colitis ulcerative",
          "organSystem": "Gastrointestinal disorders",
          "sourceVocabulary": "MedDRA 26.0",
          "assessmentType": "SYSTEMATIC_ASSESSMENT",
          "stats": [
            {
              "groupId": "EG000",
              "numAffected": 0,
              "numAtRisk": 18
            },
            {
              "groupId": "EG001",
              "numAffected": 0,
              "numAtRisk": 18
            },
            {
              "groupId": "EG002",
              "numAffected": 0,
              "numAtRisk": 16
            },
            {
              "groupId": "EG003",
              "numAffected": 0,
              "numAtRisk": 45
            },
            {
              "groupId": "EG004",
              "numAffected": 0,
              "numAtRisk": 48
            },
            {
              "groupId": "EG005",
              "numAffected": 1,
              "numAtRisk": 41
            }
          ]
        },
        {
          "term": "Enteritis",
          "organSystem": "Gastrointestinal disorders",
          "sourceVocabulary": "MedDRA 26.0",
          "assessmentType": "SYSTEMATIC_ASSESSMENT",
          "stats": [
            {
              "groupId": "EG000",
              "numAffected": 0,
              "numAtRisk": 18
            },
            {
              "groupId": "EG001",
              "numAffected": 0,
              "numAtRisk": 18
            },
            {
              "groupId": "EG002",
              "numAffected": 0,
              "numAtRisk": 16
            },
            {
              "groupId": "EG003",
              "numAffected": 0,
              "numAtRisk": 45
            },
            {
              "groupId": "EG004",
              "numAffected": 0,
              "numAtRisk": 48
            },
            {
              "groupId": "EG005",
              "numAffected": 1,
              "numAtRisk": 41
            }
          ]
        },
        {
          "term": "Haematochezia",
          "organSystem": "Gastrointestinal disorders",
          "sourceVocabulary": "MedDRA 26.0",
          "assessmentType": "SYSTEMATIC_ASSESSMENT",
          "stats": [
            {
              "groupId": "EG000",
              "numAffected": 0,
              "numAtRisk": 18
            },
            {
              "groupId": "EG001",
              "numAffected": 0,
              "numAtRisk": 18
            },
            {
              "groupId": "EG002",
              "numAffected": 0,
              "numAtRisk": 16
            },
            {
              "groupId": "EG003",
              "numAffected": 1,
              "numAtRisk": 45
            },
            {
              "groupId": "EG004",
              "numAffected": 0,
              "numAtRisk": 48
            },
            {
              "groupId": "EG005",
              "numAffected": 0,
              "numAtRisk": 41
            }
          ]
        },
        {
          "term": "Catheter site haemorrhage",
          "organSystem": "General disorders",
          "sourceVocabulary": "MedDRA 26.0",
          "assessmentType": "SYSTEMATIC_ASSESSMENT",
          "stats": [
            {
              "groupId": "EG000",
              "numAffected": 0,
              "numAtRisk": 18
            },
            {
              "groupId": "EG001",
              "numAffected": 0,
              "numAtRisk": 18
            },
            {
              "groupId": "EG002",
              "numAffected": 0,
              "numAtRisk": 16
            },
            {
              "groupId": "EG003",
              "numAffected": 0,
              "numAtRisk": 45
            },
            {
              "groupId": "EG004",
              "numAffected": 0,
              "numAtRisk": 48
            },
            {
              "groupId": "EG005",
              "numAffected": 1,
              "numAtRisk": 41
            }
          ]
        },
        {
          "term": "Chest pain",
          "organSystem": "General disorders",
          "sourceVocabulary": "MedDRA 26.0",
          "assessmentType": "SYSTEMATIC_ASSESSMENT",
          "stats": [
            {
              "groupId": "EG000",
              "numAffected": 0,
              "numAtRisk": 18
            },
            {
              "groupId": "EG001",
              "numAffected": 0,
              "numAtRisk": 18
            },
            {
              "groupId": "EG002",
              "numAffected": 0,
              "numAtRisk": 16
            },
            {
              "groupId": "EG003",
              "numAffected": 0,
              "numAtRisk": 45
            },
            {
              "groupId": "EG004",
              "numAffected": 0,
              "numAtRisk": 48
            },
            {
              "groupId": "EG005",
              "numAffected": 1,
              "numAtRisk": 41
            }
          ]
        },
        {
          "term": "Influenza",
          "organSystem": "Infections and infestations",
          "sourceVocabulary": "MedDRA 26.0",
          "assessmentType": "SYSTEMATIC_ASSESSMENT",
          "stats": [
            {
              "groupId": "EG000",
              "numAffected": 0,
              "numAtRisk": 18
            },
            {
              "groupId": "EG001",
              "numAffected": 0,
              "numAtRisk": 18
            },
            {
              "groupId": "EG002",
              "numAffected": 1,
              "numAtRisk": 16
            },
            {
              "groupId": "EG003",
              "numAffected": 2,
              "numAtRisk": 45
            },
            {
              "groupId": "EG004",
              "numAffected": 0,
              "numAtRisk": 48
            },
            {
              "groupId": "EG005",
              "numAffected": 0,
              "numAtRisk": 41
            }
          ]
        },
        {
          "term": "Pneumonia",
          "organSystem": "Infections and infestations",
          "sourceVocabulary": "MedDRA 26.0",
          "assessmentType": "SYSTEMATIC_ASSESSMENT",
          "stats": [
            {
              "groupId": "EG000",
              "numAffected": 0,
              "numAtRisk": 18
            },
            {
              "groupId": "EG001",
              "numAffected": 0,
              "numAtRisk": 18
            },
            {
              "groupId": "EG002",
              "numAffected": 0,
              "numAtRisk": 16
            },
            {
              "groupId": "EG003",
              "numAffected": 2,
              "numAtRisk": 45
            },
            {
              "groupId": "EG004",
              "numAffected": 1,
              "numAtRisk": 48
            },
            {
              "groupId": "EG005",
              "numAffected": 0,
              "numAtRisk": 41
            }
          ]
        },
        {
          "term": "Gastroenteritis",
          "organSystem": "Infections and infestations",
          "sourceVocabulary": "MedDRA 26.0",
          "assessmentType": "SYSTEMATIC_ASSESSMENT",
          "stats": [
            {
              "groupId": "EG000",
              "numAffected": 0,
              "numAtRisk": 18
            },
            {
              "groupId": "EG001",
              "numAffected": 1,
              "numAtRisk": 18
            },
            {
              "groupId": "EG002",
              "numAffected": 1,
              "numAtRisk": 16
            },
            {
              "groupId": "EG003",
              "numAffected": 0,
              "numAtRisk": 45
            },
            {
              "groupId": "EG004",
              "numAffected": 0,
              "numAtRisk": 48
            },
            {
              "groupId": "EG005",
              "numAffected": 0,
              "numAtRisk": 41
            }
          ]
        },
        {
          "term": "Acute sinusitis",
          "organSystem": "Infections and infestations",
          "sourceVocabulary": "MedDRA 26.0",
          "assessmentType": "SYSTEMATIC_ASSESSMENT",
          "stats": [
            {
              "groupId": "EG000",
              "numAffected": 0,
              "numAtRisk": 18
            },
            {
              "groupId": "EG001",
              "numAffected": 0,
              "numAtRisk": 18
            },
            {
              "groupId": "EG002",
              "numAffected": 1,
              "numAtRisk": 16
            },
            {
              "groupId": "EG003",
              "numAffected": 0,
              "numAtRisk": 45
            },
            {
              "groupId": "EG004",
              "numAffected": 0,
              "numAtRisk": 48
            },
            {
              "groupId": "EG005",
              "numAffected": 0,
              "numAtRisk": 41
            }
          ]
        },
        {
          "term": "Atypical pneumonia",
          "organSystem": "Infections and infestations",
          "sourceVocabulary": "MedDRA 26.0",
          "assessmentType": "SYSTEMATIC_ASSESSMENT",
          "stats": [
            {
              "groupId": "EG000",
              "numAffected": 0,
              "numAtRisk": 18
            },
            {
              "groupId": "EG001",
              "numAffected": 0,
              "numAtRisk": 18
            },
            {
              "groupId": "EG002",
              "numAffected": 1,
              "numAtRisk": 16
            },
            {
              "groupId": "EG003",
              "numAffected": 0,
              "numAtRisk": 45
            },
            {
              "groupId": "EG004",
              "numAffected": 0,
              "numAtRisk": 48
            },
            {
              "groupId": "EG005",
              "numAffected": 0,
              "numAtRisk": 41
            }
          ]
        },
        {
          "term": "Device related infection",
          "organSystem": "Infections and infestations",
          "sourceVocabulary": "MedDRA 26.0",
          "assessmentType": "SYSTEMATIC_ASSESSMENT",
          "stats": [
            {
              "groupId": "EG000",
              "numAffected": 0,
              "numAtRisk": 18
            },
            {
              "groupId": "EG001",
              "numAffected": 0,
              "numAtRisk": 18
            },
            {
              "groupId": "EG002",
              "numAffected": 0,
              "numAtRisk": 16
            },
            {
              "groupId": "EG003",
              "numAffected": 0,
              "numAtRisk": 45
            },
            {
              "groupId": "EG004",
              "numAffected": 1,
              "numAtRisk": 48
            },
            {
              "groupId": "EG005",
              "numAffected": 0,
              "numAtRisk": 41
            }
          ]
        },
        {
          "term": "Perineal abscess",
          "organSystem": "Infections and infestations",
          "sourceVocabulary": "MedDRA 26.0",
          "assessmentType": "SYSTEMATIC_ASSESSMENT",
          "stats": [
            {
              "groupId": "EG000",
              "numAffected": 0,
              "numAtRisk": 18
            },
            {
              "groupId": "EG001",
              "numAffected": 0,
              "numAtRisk": 18
            },
            {
              "groupId": "EG002",
              "numAffected": 0,
              "numAtRisk": 16
            },
            {
              "groupId": "EG003",
              "numAffected": 0,
              "numAtRisk": 45
            },
            {
              "groupId": "EG004",
              "numAffected": 1,
              "numAtRisk": 48
            },
            {
              "groupId": "EG005",
              "numAffected": 0,
              "numAtRisk": 41
            }
          ]
        },
        {
          "term": "Pulmonary tuberculosis",
          "organSystem": "Infections and infestations",
          "sourceVocabulary": "MedDRA 26.0",
          "assessmentType": "SYSTEMATIC_ASSESSMENT",
          "stats": [
            {
              "groupId": "EG000",
              "numAffected": 0,
              "numAtRisk": 18
            },
            {
              "groupId": "EG001",
              "numAffected": 1,
              "numAtRisk": 18
            },
            {
              "groupId": "EG002",
              "numAffected": 0,
              "numAtRisk": 16
            },
            {
              "groupId": "EG003",
              "numAffected": 0,
              "numAtRisk": 45
            },
            {
              "groupId": "EG004",
              "numAffected": 0,
              "numAtRisk": 48
            },
            {
              "groupId": "EG005",
              "numAffected": 0,
              "numAtRisk": 41
            }
          ]
        },
        {
          "term": "Respiratory tract infection",
          "organSystem": "Infections and infestations",
          "sourceVocabulary": "MedDRA 26.0",
          "assessmentType": "SYSTEMATIC_ASSESSMENT",
          "stats": [
            {
              "groupId": "EG000",
              "numAffected": 0,
              "numAtRisk": 18
            },
            {
              "groupId": "EG001",
              "numAffected": 0,
              "numAtRisk": 18
            },
            {
              "groupId": "EG002",
              "numAffected": 0,
              "numAtRisk": 16
            },
            {
              "groupId": "EG003",
              "numAffected": 0,
              "numAtRisk": 45
            },
            {
              "groupId": "EG004",
              "numAffected": 0,
              "numAtRisk": 48
            },
            {
              "groupId": "EG005",
              "numAffected": 1,
              "numAtRisk": 41
            }
          ]
        },
        {
          "term": "Septic shock",
          "organSystem": "Infections and infestations",
          "sourceVocabulary": "MedDRA 26.0",
          "assessmentType": "SYSTEMATIC_ASSESSMENT",
          "stats": [
            {
              "groupId": "EG000",
              "numAffected": 0,
              "numAtRisk": 18
            },
            {
              "groupId": "EG001",
              "numAffected": 0,
              "numAtRisk": 18
            },
            {
              "groupId": "EG002",
              "numAffected": 0,
              "numAtRisk": 16
            },
            {
              "groupId": "EG003",
              "numAffected": 0,
              "numAtRisk": 45
            },
            {
              "groupId": "EG004",
              "numAffected": 0,
              "numAtRisk": 48
            },
            {
              "groupId": "EG005",
              "numAffected": 1,
              "numAtRisk": 41
            }
          ]
        },
        {
          "term": "Vascular device infection",
          "organSystem": "Infections and infestations",
          "sourceVocabulary": "MedDRA 26.0",
          "assessmentType": "SYSTEMATIC_ASSESSMENT",
          "stats": [
            {
              "groupId": "EG000",
              "numAffected": 0,
              "numAtRisk": 18
            },
            {
              "groupId": "EG001",
              "numAffected": 0,
              "numAtRisk": 18
            },
            {
              "groupId": "EG002",
              "numAffected": 1,
              "numAtRisk": 16
            },
            {
              "groupId": "EG003",
              "numAffected": 0,
              "numAtRisk": 45
            },
            {
              "groupId": "EG004",
              "numAffected": 0,
              "numAtRisk": 48
            },
            {
              "groupId": "EG005",
              "numAffected": 0,
              "numAtRisk": 41
            }
          ]
        },
        {
          "term": "Subdural haematoma",
          "organSystem": "Injury, poisoning and procedural complications",
          "sourceVocabulary": "MedDRA 26.0",
          "assessmentType": "SYSTEMATIC_ASSESSMENT",
          "stats": [
            {
              "groupId": "EG000",
              "numAffected": 0,
              "numAtRisk": 18
            },
            {
              "groupId": "EG001",
              "numAffected": 0,
              "numAtRisk": 18
            },
            {
              "groupId": "EG002",
              "numAffected": 1,
              "numAtRisk": 16
            },
            {
              "groupId": "EG003",
              "numAffected": 0,
              "numAtRisk": 45
            },
            {
              "groupId": "EG004",
              "numAffected": 0,
              "numAtRisk": 48
            },
            {
              "groupId": "EG005",
              "numAffected": 0,
              "numAtRisk": 41
            }
          ]
        },
        {
          "term": "Bone lesion",
          "organSystem": "Musculoskeletal and connective tissue disorders",
          "sourceVocabulary": "MedDRA 26.0",
          "assessmentType": "SYSTEMATIC_ASSESSMENT",
          "stats": [
            {
              "groupId": "EG000",
              "numAffected": 0,
              "numAtRisk": 18
            },
            {
              "groupId": "EG001",
              "numAffected": 0,
              "numAtRisk": 18
            },
            {
              "groupId": "EG002",
              "numAffected": 0,
              "numAtRisk": 16
            },
            {
              "groupId": "EG003",
              "numAffected": 1,
              "numAtRisk": 45
            },
            {
              "groupId": "EG004",
              "numAffected": 0,
              "numAtRisk": 48
            },
            {
              "groupId": "EG005",
              "numAffected": 0,
              "numAtRisk": 41
            }
          ]
        },
        {
          "term": "Syncope",
          "organSystem": "Nervous system disorders",
          "sourceVocabulary": "MedDRA 26.0",
          "assessmentType": "SYSTEMATIC_ASSESSMENT",
          "stats": [
            {
              "groupId": "EG000",
              "numAffected": 0,
              "numAtRisk": 18
            },
            {
              "groupId": "EG001",
              "numAffected": 0,
              "numAtRisk": 18
            },
            {
              "groupId": "EG002",
              "numAffected": 0,
              "numAtRisk": 16
            },
            {
              "groupId": "EG003",
              "numAffected": 1,
              "numAtRisk": 45
            },
            {
              "groupId": "EG004",
              "numAffected": 1,
              "numAtRisk": 48
            },
            {
              "groupId": "EG005",
              "numAffected": 0,
              "numAtRisk": 41
            }
          ]
        },
        {
          "term": "Ectopic pregnancy",
          "organSystem": "Pregnancy, puerperium and perinatal conditions",
          "sourceVocabulary": "MedDRA 26.0",
          "assessmentType": "SYSTEMATIC_ASSESSMENT",
          "stats": [
            {
              "groupId": "EG000",
              "numAffected": 0,
              "numAtRisk": 18
            },
            {
              "groupId": "EG001",
              "numAffected": 0,
              "numAtRisk": 18
            },
            {
              "groupId": "EG002",
              "numAffected": 0,
              "numAtRisk": 16
            },
            {
              "groupId": "EG003",
              "numAffected": 0,
              "numAtRisk": 45
            },
            {
              "groupId": "EG004",
              "numAffected": 0,
              "numAtRisk": 48
            },
            {
              "groupId": "EG005",
              "numAffected": 1,
              "numAtRisk": 41
            }
          ]
        },
        {
          "term": "Device breakage",
          "organSystem": "Product Issues",
          "sourceVocabulary": "MedDRA 26.0",
          "assessmentType": "SYSTEMATIC_ASSESSMENT",
          "stats": [
            {
              "groupId": "EG000",
              "numAffected": 0,
              "numAtRisk": 18
            },
            {
              "groupId": "EG001",
              "numAffected": 0,
              "numAtRisk": 18
            },
            {
              "groupId": "EG002",
              "numAffected": 0,
              "numAtRisk": 16
            },
            {
              "groupId": "EG003",
              "numAffected": 0,
              "numAtRisk": 45
            },
            {
              "groupId": "EG004",
              "numAffected": 0,
              "numAtRisk": 48
            },
            {
              "groupId": "EG005",
              "numAffected": 1,
              "numAtRisk": 41
            }
          ]
        },
        {
          "term": "Haemoptysis",
          "organSystem": "Respiratory, thoracic and mediastinal disorders",
          "sourceVocabulary": "MedDRA 26.0",
          "assessmentType": "SYSTEMATIC_ASSESSMENT",
          "stats": [
            {
              "groupId": "EG000",
              "numAffected": 1,
              "numAtRisk": 18
            },
            {
              "groupId": "EG001",
              "numAffected": 1,
              "numAtRisk": 18
            },
            {
              "groupId": "EG002",
              "numAffected": 0,
              "numAtRisk": 16
            },
            {
              "groupId": "EG003",
              "numAffected": 0,
              "numAtRisk": 45
            },
            {
              "groupId": "EG004",
              "numAffected": 0,
              "numAtRisk": 48
            },
            {
              "groupId": "EG005",
              "numAffected": 1,
              "numAtRisk": 41
            }
          ]
        },
        {
          "term": "Acute respiratory failure",
          "organSystem": "Respiratory, thoracic and mediastinal disorders",
          "sourceVocabulary": "MedDRA 26.0",
          "assessmentType": "SYSTEMATIC_ASSESSMENT",
          "stats": [
            {
              "groupId": "EG000",
              "numAffected": 1,
              "numAtRisk": 18
            },
            {
              "groupId": "EG001",
              "numAffected": 0,
              "numAtRisk": 18
            },
            {
              "groupId": "EG002",
              "numAffected": 0,
              "numAtRisk": 16
            },
            {
              "groupId": "EG003",
              "numAffected": 1,
              "numAtRisk": 45
            },
            {
              "groupId": "EG004",
              "numAffected": 0,
              "numAtRisk": 48
            },
            {
              "groupId": "EG005",
              "numAffected": 0,
              "numAtRisk": 41
            }
          ]
        },
        {
          "term": "Dyspnoea",
          "organSystem": "Respiratory, thoracic and mediastinal disorders",
          "sourceVocabulary": "MedDRA 26.0",
          "assessmentType": "SYSTEMATIC_ASSESSMENT",
          "stats": [
            {
              "groupId": "EG000",
              "numAffected": 1,
              "numAtRisk": 18
            },
            {
              "groupId": "EG001",
              "numAffected": 0,
              "numAtRisk": 18
            },
            {
              "groupId": "EG002",
              "numAffected": 0,
              "numAtRisk": 16
            },
            {
              "groupId": "EG003",
              "numAffected": 0,
              "numAtRisk": 45
            },
            {
              "groupId": "EG004",
              "numAffected": 1,
              "numAtRisk": 48
            },
            {
              "groupId": "EG005",
              "numAffected": 0,
              "numAtRisk": 41
            }
          ]
        },
        {
          "term": "Pulmonary arterial hypertension",
          "organSystem": "Respiratory, thoracic and mediastinal disorders",
          "sourceVocabulary": "MedDRA 26.0",
          "assessmentType": "SYSTEMATIC_ASSESSMENT",
          "stats": [
            {
              "groupId": "EG000",
              "numAffected": 0,
              "numAtRisk": 18
            },
            {
              "groupId": "EG001",
              "numAffected": 0,
              "numAtRisk": 18
            },
            {
              "groupId": "EG002",
              "numAffected": 0,
              "numAtRisk": 16
            },
            {
              "groupId": "EG003",
              "numAffected": 1,
              "numAtRisk": 45
            },
            {
              "groupId": "EG004",
              "numAffected": 1,
              "numAtRisk": 48
            },
            {
              "groupId": "EG005",
              "numAffected": 0,
              "numAtRisk": 41
            }
          ]
        },
        {
          "term": "Lung hernia",
          "organSystem": "Respiratory, thoracic and mediastinal disorders",
          "sourceVocabulary": "MedDRA 26.0",
          "assessmentType": "SYSTEMATIC_ASSESSMENT",
          "stats": [
            {
              "groupId": "EG000",
              "numAffected": 1,
              "numAtRisk": 18
            },
            {
              "groupId": "EG001",
              "numAffected": 0,
              "numAtRisk": 18
            },
            {
              "groupId": "EG002",
              "numAffected": 0,
              "numAtRisk": 16
            },
            {
              "groupId": "EG003",
              "numAffected": 0,
              "numAtRisk": 45
            },
            {
              "groupId": "EG004",
              "numAffected": 0,
              "numAtRisk": 48
            },
            {
              "groupId": "EG005",
              "numAffected": 0,
              "numAtRisk": 41
            }
          ]
        },
        {
          "term": "Pulmonary embolism",
          "organSystem": "Respiratory, thoracic and mediastinal disorders",
          "sourceVocabulary": "MedDRA 26.0",
          "assessmentType": "SYSTEMATIC_ASSESSMENT",
          "stats": [
            {
              "groupId": "EG000",
              "numAffected": 0,
              "numAtRisk": 18
            },
            {
              "groupId": "EG001",
              "numAffected": 0,
              "numAtRisk": 18
            },
            {
              "groupId": "EG002",
              "numAffected": 0,
              "numAtRisk": 16
            },
            {
              "groupId": "EG003",
              "numAffected": 1,
              "numAtRisk": 45
            },
            {
              "groupId": "EG004",
              "numAffected": 0,
              "numAtRisk": 48
            },
            {
              "groupId": "EG005",
              "numAffected": 0,
              "numAtRisk": 41
            }
          ]
        }
      ],
      "otherEvents": [
        {
          "term": "Viral upper respiratory tract infection",
          "organSystem": "Infections and infestations",
          "sourceVocabulary": "MedDRA 26.0",
          "assessmentType": "SYSTEMATIC_ASSESSMENT",
          "stats": [
            {
              "groupId": "EG000",
              "numAffected": 2,
              "numAtRisk": 18
            },
            {
              "groupId": "EG001",
              "numAffected": 2,
              "numAtRisk": 18
            },
            {
              "groupId": "EG002",
              "numAffected": 1,
              "numAtRisk": 16
            },
            {
              "groupId": "EG003",
              "numAffected": 0,
              "numAtRisk": 45
            },
            {
              "groupId": "EG004",
              "numAffected": 3,
              "numAtRisk": 48
            },
            {
              "groupId": "EG005",
              "numAffected": 1,
              "numAtRisk": 41
            }
          ]
        },
        {
          "term": "Upper respiratory tract infection",
          "organSystem": "Infections and infestations",
          "sourceVocabulary": "MedDRA 26.0",
          "assessmentType": "SYSTEMATIC_ASSESSMENT",
          "stats": [
            {
              "groupId": "EG000",
              "numAffected": 2,
              "numAtRisk": 18
            },
            {
              "groupId": "EG001",
              "numAffected": 1,
              "numAtRisk": 18
            },
            {
              "groupId": "EG002",
              "numAffected": 0,
              "numAtRisk": 16
            },
            {
              "groupId": "EG003",
              "numAffected": 1,
              "numAtRisk": 45
            },
            {
              "groupId": "EG004",
              "numAffected": 0,
              "numAtRisk": 48
            },
            {
              "groupId": "EG005",
              "numAffected": 4,
              "numAtRisk": 41
            }
          ]
        },
        {
          "term": "COVID-19",
          "organSystem": "Infections and infestations",
          "sourceVocabulary": "MedDRA 26.0",
          "assessmentType": "SYSTEMATIC_ASSESSMENT",
          "stats": [
            {
              "groupId": "EG000",
              "numAffected": 0,
              "numAtRisk": 18
            },
            {
              "groupId": "EG001",
              "numAffected": 1,
              "numAtRisk": 18
            },
            {
              "groupId": "EG002",
              "numAffected": 0,
              "numAtRisk": 16
            },
            {
              "groupId": "EG003",
              "numAffected": 0,
              "numAtRisk": 45
            },
            {
              "groupId": "EG004",
              "numAffected": 2,
              "numAtRisk": 48
            },
            {
              "groupId": "EG005",
              "numAffected": 3,
              "numAtRisk": 41
            }
          ]
        },
        {
          "term": "Influenza",
          "organSystem": "Infections and infestations",
          "sourceVocabulary": "MedDRA 26.0",
          "assessmentType": "SYSTEMATIC_ASSESSMENT",
          "stats": [
            {
              "groupId": "EG000",
              "numAffected": 0,
              "numAtRisk": 18
            },
            {
              "groupId": "EG001",
              "numAffected": 1,
              "numAtRisk": 18
            },
            {
              "groupId": "EG002",
              "numAffected": 0,
              "numAtRisk": 16
            },
            {
              "groupId": "EG003",
              "numAffected": 2,
              "numAtRisk": 45
            },
            {
              "groupId": "EG004",
              "numAffected": 2,
              "numAtRisk": 48
            },
            {
              "groupId": "EG005",
              "numAffected": 0,
              "numAtRisk": 41
            }
          ]
        },
        {
          "term": "Nasopharyngitis",
          "organSystem": "Infections and infestations",
          "sourceVocabulary": "MedDRA 26.0",
          "assessmentType": "SYSTEMATIC_ASSESSMENT",
          "stats": [
            {
              "groupId": "EG000",
              "numAffected": 1,
              "numAtRisk": 18
            },
            {
              "groupId": "EG001",
              "numAffected": 1,
              "numAtRisk": 18
            },
            {
              "groupId": "EG002",
              "numAffected": 1,
              "numAtRisk": 16
            },
            {
              "groupId": "EG003",
              "numAffected": 0,
              "numAtRisk": 45
            },
            {
              "groupId": "EG004",
              "numAffected": 1,
              "numAtRisk": 48
            },
            {
              "groupId": "EG005",
              "numAffected": 1,
              "numAtRisk": 41
            }
          ]
        },
        {
          "term": "Pneumonia",
          "organSystem": "Infections and infestations",
          "sourceVocabulary": "MedDRA 26.0",
          "assessmentType": "SYSTEMATIC_ASSESSMENT",
          "stats": [
            {
              "groupId": "EG000",
              "numAffected": 0,
              "numAtRisk": 18
            },
            {
              "groupId": "EG001",
              "numAffected": 2,
              "numAtRisk": 18
            },
            {
              "groupId": "EG002",
              "numAffected": 0,
              "numAtRisk": 16
            },
            {
              "groupId": "EG003",
              "numAffected": 1,
              "numAtRisk": 45
            },
            {
              "groupId": "EG004",
              "numAffected": 0,
              "numAtRisk": 48
            },
            {
              "groupId": "EG005",
              "numAffected": 1,
              "numAtRisk": 41
            }
          ]
        },
        {
          "term": "Respiratory tract infection",
          "organSystem": "Infections and infestations",
          "sourceVocabulary": "MedDRA 26.0",
          "assessmentType": "SYSTEMATIC_ASSESSMENT",
          "stats": [
            {
              "groupId": "EG000",
              "numAffected": 0,
              "numAtRisk": 18
            },
            {
              "groupId": "EG001",
              "numAffected": 1,
              "numAtRisk": 18
            },
            {
              "groupId": "EG002",
              "numAffected": 0,
              "numAtRisk": 16
            },
            {
              "groupId": "EG003",
              "numAffected": 1,
              "numAtRisk": 45
            },
            {
              "groupId": "EG004",
              "numAffected": 0,
              "numAtRisk": 48
            },
            {
              "groupId": "EG005",
              "numAffected": 0,
              "numAtRisk": 41
            }
          ]
        },
        {
          "term": "Atypical pneumonia",
          "organSystem": "Infections and infestations",
          "sourceVocabulary": "MedDRA 26.0",
          "assessmentType": "SYSTEMATIC_ASSESSMENT",
          "stats": [
            {
              "groupId": "EG000",
              "numAffected": 0,
              "numAtRisk": 18
            },
            {
              "groupId": "EG001",
              "numAffected": 0,
              "numAtRisk": 18
            },
            {
              "groupId": "EG002",
              "numAffected": 1,
              "numAtRisk": 16
            },
            {
              "groupId": "EG003",
              "numAffected": 0,
              "numAtRisk": 45
            },
            {
              "groupId": "EG004",
              "numAffected": 0,
              "numAtRisk": 48
            },
            {
              "groupId": "EG005",
              "numAffected": 0,
              "numAtRisk": 41
            }
          ]
        },
        {
          "term": "Bronchitis",
          "organSystem": "Infections and infestations",
          "sourceVocabulary": "MedDRA 26.0",
          "assessmentType": "SYSTEMATIC_ASSESSMENT",
          "stats": [
            {
              "groupId": "EG000",
              "numAffected": 1,
              "numAtRisk": 18
            },
            {
              "groupId": "EG001",
              "numAffected": 0,
              "numAtRisk": 18
            },
            {
              "groupId": "EG002",
              "numAffected": 0,
              "numAtRisk": 16
            },
            {
              "groupId": "EG003",
              "numAffected": 0,
              "numAtRisk": 45
            },
            {
              "groupId": "EG004",
              "numAffected": 0,
              "numAtRisk": 48
            },
            {
              "groupId": "EG005",
              "numAffected": 0,
              "numAtRisk": 41
            }
          ]
        },
        {
          "term": "Bronchitis bacterial",
          "organSystem": "Infections and infestations",
          "sourceVocabulary": "MedDRA 26.0",
          "assessmentType": "SYSTEMATIC_ASSESSMENT",
          "stats": [
            {
              "groupId": "EG000",
              "numAffected": 1,
              "numAtRisk": 18
            },
            {
              "groupId": "EG001",
              "numAffected": 0,
              "numAtRisk": 18
            },
            {
              "groupId": "EG002",
              "numAffected": 0,
              "numAtRisk": 16
            },
            {
              "groupId": "EG003",
              "numAffected": 0,
              "numAtRisk": 45
            },
            {
              "groupId": "EG004",
              "numAffected": 0,
              "numAtRisk": 48
            },
            {
              "groupId": "EG005",
              "numAffected": 0,
              "numAtRisk": 41
            }
          ]
        },
        {
          "term": "Clostridium difficile colitis",
          "organSystem": "Infections and infestations",
          "sourceVocabulary": "MedDRA 26.0",
          "assessmentType": "SYSTEMATIC_ASSESSMENT",
          "stats": [
            {
              "groupId": "EG000",
              "numAffected": 1,
              "numAtRisk": 18
            },
            {
              "groupId": "EG001",
              "numAffected": 0,
              "numAtRisk": 18
            },
            {
              "groupId": "EG002",
              "numAffected": 0,
              "numAtRisk": 16
            },
            {
              "groupId": "EG003",
              "numAffected": 0,
              "numAtRisk": 45
            },
            {
              "groupId": "EG004",
              "numAffected": 0,
              "numAtRisk": 48
            },
            {
              "groupId": "EG005",
              "numAffected": 0,
              "numAtRisk": 41
            }
          ]
        },
        {
          "term": "Otitis media acute",
          "organSystem": "Infections and infestations",
          "sourceVocabulary": "MedDRA 26.0",
          "assessmentType": "SYSTEMATIC_ASSESSMENT",
          "stats": [
            {
              "groupId": "EG000",
              "numAffected": 1,
              "numAtRisk": 18
            },
            {
              "groupId": "EG001",
              "numAffected": 0,
              "numAtRisk": 18
            },
            {
              "groupId": "EG002",
              "numAffected": 0,
              "numAtRisk": 16
            },
            {
              "groupId": "EG003",
              "numAffected": 0,
              "numAtRisk": 45
            },
            {
              "groupId": "EG004",
              "numAffected": 0,
              "numAtRisk": 48
            },
            {
              "groupId": "EG005",
              "numAffected": 0,
              "numAtRisk": 41
            }
          ]
        },
        {
          "term": "Serratia sepsis",
          "organSystem": "Infections and infestations",
          "sourceVocabulary": "MedDRA 26.0",
          "assessmentType": "SYSTEMATIC_ASSESSMENT",
          "stats": [
            {
              "groupId": "EG000",
              "numAffected": 1,
              "numAtRisk": 18
            },
            {
              "groupId": "EG001",
              "numAffected": 0,
              "numAtRisk": 18
            },
            {
              "groupId": "EG002",
              "numAffected": 0,
              "numAtRisk": 16
            },
            {
              "groupId": "EG003",
              "numAffected": 0,
              "numAtRisk": 45
            },
            {
              "groupId": "EG004",
              "numAffected": 0,
              "numAtRisk": 48
            },
            {
              "groupId": "EG005",
              "numAffected": 0,
              "numAtRisk": 41
            }
          ]
        },
        {
          "term": "Transmission of an infectious agent via transplant",
          "organSystem": "Infections and infestations",
          "sourceVocabulary": "MedDRA 26.0",
          "assessmentType": "SYSTEMATIC_ASSESSMENT",
          "stats": [
            {
              "groupId": "EG000",
              "numAffected": 1,
              "numAtRisk": 18
            },
            {
              "groupId": "EG001",
              "numAffected": 0,
              "numAtRisk": 18
            },
            {
              "groupId": "EG002",
              "numAffected": 0,
              "numAtRisk": 16
            },
            {
              "groupId": "EG003",
              "numAffected": 0,
              "numAtRisk": 45
            },
            {
              "groupId": "EG004",
              "numAffected": 0,
              "numAtRisk": 48
            },
            {
              "groupId": "EG005",
              "numAffected": 0,
              "numAtRisk": 41
            }
          ]
        },
        {
          "term": "Cough",
          "organSystem": "Respiratory, thoracic and mediastinal disorders",
          "sourceVocabulary": "MedDRA 26.0",
          "assessmentType": "SYSTEMATIC_ASSESSMENT",
          "stats": [
            {
              "groupId": "EG000",
              "numAffected": 3,
              "numAtRisk": 18
            },
            {
              "groupId": "EG001",
              "numAffected": 2,
              "numAtRisk": 18
            },
            {
              "groupId": "EG002",
              "numAffected": 7,
              "numAtRisk": 16
            },
            {
              "groupId": "EG003",
              "numAffected": 2,
              "numAtRisk": 45
            },
            {
              "groupId": "EG004",
              "numAffected": 4,
              "numAtRisk": 48
            },
            {
              "groupId": "EG005",
              "numAffected": 2,
              "numAtRisk": 41
            }
          ]
        },
        {
          "term": "Pulmonary arterial hypertension",
          "organSystem": "Respiratory, thoracic and mediastinal disorders",
          "sourceVocabulary": "MedDRA 26.0",
          "assessmentType": "SYSTEMATIC_ASSESSMENT",
          "stats": [
            {
              "groupId": "EG000",
              "numAffected": 2,
              "numAtRisk": 18
            },
            {
              "groupId": "EG001",
              "numAffected": 0,
              "numAtRisk": 18
            },
            {
              "groupId": "EG002",
              "numAffected": 0,
              "numAtRisk": 16
            },
            {
              "groupId": "EG003",
              "numAffected": 0,
              "numAtRisk": 45
            },
            {
              "groupId": "EG004",
              "numAffected": 2,
              "numAtRisk": 48
            },
            {
              "groupId": "EG005",
              "numAffected": 1,
              "numAtRisk": 41
            }
          ]
        },
        {
          "term": "Hypoxia",
          "organSystem": "Respiratory, thoracic and mediastinal disorders",
          "sourceVocabulary": "MedDRA 26.0",
          "assessmentType": "SYSTEMATIC_ASSESSMENT",
          "stats": [
            {
              "groupId": "EG000",
              "numAffected": 0,
              "numAtRisk": 18
            },
            {
              "groupId": "EG001",
              "numAffected": 0,
              "numAtRisk": 18
            },
            {
              "groupId": "EG002",
              "numAffected": 1,
              "numAtRisk": 16
            },
            {
              "groupId": "EG003",
              "numAffected": 1,
              "numAtRisk": 45
            },
            {
              "groupId": "EG004",
              "numAffected": 0,
              "numAtRisk": 48
            },
            {
              "groupId": "EG005",
              "numAffected": 0,
              "numAtRisk": 41
            }
          ]
        },
        {
          "term": "Throat irritation",
          "organSystem": "Respiratory, thoracic and mediastinal disorders",
          "sourceVocabulary": "MedDRA 26.0",
          "assessmentType": "SYSTEMATIC_ASSESSMENT",
          "stats": [
            {
              "groupId": "EG000",
              "numAffected": 0,
              "numAtRisk": 18
            },
            {
              "groupId": "EG001",
              "numAffected": 1,
              "numAtRisk": 18
            },
            {
              "groupId": "EG002",
              "numAffected": 0,
              "numAtRisk": 16
            },
            {
              "groupId": "EG003",
              "numAffected": 1,
              "numAtRisk": 45
            },
            {
              "groupId": "EG004",
              "numAffected": 0,
              "numAtRisk": 48
            },
            {
              "groupId": "EG005",
              "numAffected": 0,
              "numAtRisk": 41
            }
          ]
        },
        {
          "term": "Dyspnoea at rest",
          "organSystem": "Respiratory, thoracic and mediastinal disorders",
          "sourceVocabulary": "MedDRA 26.0",
          "assessmentType": "SYSTEMATIC_ASSESSMENT",
          "stats": [
            {
              "groupId": "EG000",
              "numAffected": 0,
              "numAtRisk": 18
            },
            {
              "groupId": "EG001",
              "numAffected": 1,
              "numAtRisk": 18
            },
            {
              "groupId": "EG002",
              "numAffected": 0,
              "numAtRisk": 16
            },
            {
              "groupId": "EG003",
              "numAffected": 0,
              "numAtRisk": 45
            },
            {
              "groupId": "EG004",
              "numAffected": 0,
              "numAtRisk": 48
            },
            {
              "groupId": "EG005",
              "numAffected": 0,
              "numAtRisk": 41
            }
          ]
        },
        {
          "term": "Nasal dryness",
          "organSystem": "Respiratory, thoracic and mediastinal disorders",
          "sourceVocabulary": "MedDRA 26.0",
          "assessmentType": "SYSTEMATIC_ASSESSMENT",
          "stats": [
            {
              "groupId": "EG000",
              "numAffected": 0,
              "numAtRisk": 18
            },
            {
              "groupId": "EG001",
              "numAffected": 0,
              "numAtRisk": 18
            },
            {
              "groupId": "EG002",
              "numAffected": 1,
              "numAtRisk": 16
            },
            {
              "groupId": "EG003",
              "numAffected": 0,
              "numAtRisk": 45
            },
            {
              "groupId": "EG004",
              "numAffected": 0,
              "numAtRisk": 48
            },
            {
              "groupId": "EG005",
              "numAffected": 0,
              "numAtRisk": 41
            }
          ]
        },
        {
          "term": "Pleural effusion",
          "organSystem": "Respiratory, thoracic and mediastinal disorders",
          "sourceVocabulary": "MedDRA 26.0",
          "assessmentType": "SYSTEMATIC_ASSESSMENT",
          "stats": [
            {
              "groupId": "EG000",
              "numAffected": 1,
              "numAtRisk": 18
            },
            {
              "groupId": "EG001",
              "numAffected": 0,
              "numAtRisk": 18
            },
            {
              "groupId": "EG002",
              "numAffected": 0,
              "numAtRisk": 16
            },
            {
              "groupId": "EG003",
              "numAffected": 0,
              "numAtRisk": 45
            },
            {
              "groupId": "EG004",
              "numAffected": 0,
              "numAtRisk": 48
            },
            {
              "groupId": "EG005",
              "numAffected": 0,
              "numAtRisk": 41
            }
          ]
        },
        {
          "term": "Rhinitis allergic",
          "organSystem": "Respiratory, thoracic and mediastinal disorders",
          "sourceVocabulary": "MedDRA 26.0",
          "assessmentType": "SYSTEMATIC_ASSESSMENT",
          "stats": [
            {
              "groupId": "EG000",
              "numAffected": 1,
              "numAtRisk": 18
            },
            {
              "groupId": "EG001",
              "numAffected": 0,
              "numAtRisk": 18
            },
            {
              "groupId": "EG002",
              "numAffected": 0,
              "numAtRisk": 16
            },
            {
              "groupId": "EG003",
              "numAffected": 0,
              "numAtRisk": 45
            },
            {
              "groupId": "EG004",
              "numAffected": 0,
              "numAtRisk": 48
            },
            {
              "groupId": "EG005",
              "numAffected": 0,
              "numAtRisk": 41
            }
          ]
        },
        {
          "term": "Wheezing",
          "organSystem": "Respiratory, thoracic and mediastinal disorders",
          "sourceVocabulary": "MedDRA 26.0",
          "assessmentType": "SYSTEMATIC_ASSESSMENT",
          "stats": [
            {
              "groupId": "EG000",
              "numAffected": 0,
              "numAtRisk": 18
            },
            {
              "groupId": "EG001",
              "numAffected": 0,
              "numAtRisk": 18
            },
            {
              "groupId": "EG002",
              "numAffected": 1,
              "numAtRisk": 16
            },
            {
              "groupId": "EG003",
              "numAffected": 0,
              "numAtRisk": 45
            },
            {
              "groupId": "EG004",
              "numAffected": 0,
              "numAtRisk": 48
            },
            {
              "groupId": "EG005",
              "numAffected": 0,
              "numAtRisk": 41
            }
          ]
        },
        {
          "term": "Diarrhoea",
          "organSystem": "Gastrointestinal disorders",
          "sourceVocabulary": "MedDRA 26.0",
          "assessmentType": "SYSTEMATIC_ASSESSMENT",
          "stats": [
            {
              "groupId": "EG000",
              "numAffected": 0,
              "numAtRisk": 18
            },
            {
              "groupId": "EG001",
              "numAffected": 3,
              "numAtRisk": 18
            },
            {
              "groupId": "EG002",
              "numAffected": 1,
              "numAtRisk": 16
            },
            {
              "groupId": "EG003",
              "numAffected": 2,
              "numAtRisk": 45
            },
            {
              "groupId": "EG004",
              "numAffected": 1,
              "numAtRisk": 48
            },
            {
              "groupId": "EG005",
              "numAffected": 4,
              "numAtRisk": 41
            }
          ]
        },
        {
          "term": "Nausea",
          "organSystem": "Gastrointestinal disorders",
          "sourceVocabulary": "MedDRA 26.0",
          "assessmentType": "SYSTEMATIC_ASSESSMENT",
          "stats": [
            {
              "groupId": "EG000",
              "numAffected": 0,
              "numAtRisk": 18
            },
            {
              "groupId": "EG001",
              "numAffected": 1,
              "numAtRisk": 18
            },
            {
              "groupId": "EG002",
              "numAffected": 1,
              "numAtRisk": 16
            },
            {
              "groupId": "EG003",
              "numAffected": 3,
              "numAtRisk": 45
            },
            {
              "groupId": "EG004",
              "numAffected": 0,
              "numAtRisk": 48
            },
            {
              "groupId": "EG005",
              "numAffected": 0,
              "numAtRisk": 41
            }
          ]
        },
        {
          "term": "Abdominal distension",
          "organSystem": "Gastrointestinal disorders",
          "sourceVocabulary": "MedDRA 26.0",
          "assessmentType": "SYSTEMATIC_ASSESSMENT",
          "stats": [
            {
              "groupId": "EG000",
              "numAffected": 1,
              "numAtRisk": 18
            },
            {
              "groupId": "EG001",
              "numAffected": 0,
              "numAtRisk": 18
            },
            {
              "groupId": "EG002",
              "numAffected": 0,
              "numAtRisk": 16
            },
            {
              "groupId": "EG003",
              "numAffected": 2,
              "numAtRisk": 45
            },
            {
              "groupId": "EG004",
              "numAffected": 0,
              "numAtRisk": 48
            },
            {
              "groupId": "EG005",
              "numAffected": 0,
              "numAtRisk": 41
            }
          ]
        },
        {
          "term": "Vomiting",
          "organSystem": "Gastrointestinal disorders",
          "sourceVocabulary": "MedDRA 26.0",
          "assessmentType": "SYSTEMATIC_ASSESSMENT",
          "stats": [
            {
              "groupId": "EG000",
              "numAffected": 0,
              "numAtRisk": 18
            },
            {
              "groupId": "EG001",
              "numAffected": 0,
              "numAtRisk": 18
            },
            {
              "groupId": "EG002",
              "numAffected": 1,
              "numAtRisk": 16
            },
            {
              "groupId": "EG003",
              "numAffected": 1,
              "numAtRisk": 45
            },
            {
              "groupId": "EG004",
              "numAffected": 0,
              "numAtRisk": 48
            },
            {
              "groupId": "EG005",
              "numAffected": 1,
              "numAtRisk": 41
            }
          ]
        },
        {
          "term": "Abdominal pain upper",
          "organSystem": "Gastrointestinal disorders",
          "sourceVocabulary": "MedDRA 26.0",
          "assessmentType": "SYSTEMATIC_ASSESSMENT",
          "stats": [
            {
              "groupId": "EG000",
              "numAffected": 1,
              "numAtRisk": 18
            },
            {
              "groupId": "EG001",
              "numAffected": 0,
              "numAtRisk": 18
            },
            {
              "groupId": "EG002",
              "numAffected": 0,
              "numAtRisk": 16
            },
            {
              "groupId": "EG003",
              "numAffected": 0,
              "numAtRisk": 45
            },
            {
              "groupId": "EG004",
              "numAffected": 1,
              "numAtRisk": 48
            },
            {
              "groupId": "EG005",
              "numAffected": 0,
              "numAtRisk": 41
            }
          ]
        },
        {
          "term": "Constipation",
          "organSystem": "Gastrointestinal disorders",
          "sourceVocabulary": "MedDRA 26.0",
          "assessmentType": "SYSTEMATIC_ASSESSMENT",
          "stats": [
            {
              "groupId": "EG000",
              "numAffected": 1,
              "numAtRisk": 18
            },
            {
              "groupId": "EG001",
              "numAffected": 0,
              "numAtRisk": 18
            },
            {
              "groupId": "EG002",
              "numAffected": 0,
              "numAtRisk": 16
            },
            {
              "groupId": "EG003",
              "numAffected": 0,
              "numAtRisk": 45
            },
            {
              "groupId": "EG004",
              "numAffected": 0,
              "numAtRisk": 48
            },
            {
              "groupId": "EG005",
              "numAffected": 0,
              "numAtRisk": 41
            }
          ]
        },
        {
          "term": "Dry mouth",
          "organSystem": "Gastrointestinal disorders",
          "sourceVocabulary": "MedDRA 26.0",
          "assessmentType": "SYSTEMATIC_ASSESSMENT",
          "stats": [
            {
              "groupId": "EG000",
              "numAffected": 1,
              "numAtRisk": 18
            },
            {
              "groupId": "EG001",
              "numAffected": 0,
              "numAtRisk": 18
            },
            {
              "groupId": "EG002",
              "numAffected": 0,
              "numAtRisk": 16
            },
            {
              "groupId": "EG003",
              "numAffected": 0,
              "numAtRisk": 45
            },
            {
              "groupId": "EG004",
              "numAffected": 0,
              "numAtRisk": 48
            },
            {
              "groupId": "EG005",
              "numAffected": 0,
              "numAtRisk": 41
            }
          ]
        },
        {
          "term": "Dyspepsia",
          "organSystem": "Gastrointestinal disorders",
          "sourceVocabulary": "MedDRA 26.0",
          "assessmentType": "SYSTEMATIC_ASSESSMENT",
          "stats": [
            {
              "groupId": "EG000",
              "numAffected": 0,
              "numAtRisk": 18
            },
            {
              "groupId": "EG001",
              "numAffected": 0,
              "numAtRisk": 18
            },
            {
              "groupId": "EG002",
              "numAffected": 1,
              "numAtRisk": 16
            },
            {
              "groupId": "EG003",
              "numAffected": 0,
              "numAtRisk": 45
            },
            {
              "groupId": "EG004",
              "numAffected": 0,
              "numAtRisk": 48
            },
            {
              "groupId": "EG005",
              "numAffected": 0,
              "numAtRisk": 41
            }
          ]
        },
        {
          "term": "Gastric disorder",
          "organSystem": "Gastrointestinal disorders",
          "sourceVocabulary": "MedDRA 26.0",
          "assessmentType": "SYSTEMATIC_ASSESSMENT",
          "stats": [
            {
              "groupId": "EG000",
              "numAffected": 0,
              "numAtRisk": 18
            },
            {
              "groupId": "EG001",
              "numAffected": 1,
              "numAtRisk": 18
            },
            {
              "groupId": "EG002",
              "numAffected": 0,
              "numAtRisk": 16
            },
            {
              "groupId": "EG003",
              "numAffected": 0,
              "numAtRisk": 45
            },
            {
              "groupId": "EG004",
              "numAffected": 0,
              "numAtRisk": 48
            },
            {
              "groupId": "EG005",
              "numAffected": 0,
              "numAtRisk": 41
            }
          ]
        },
        {
          "term": "Headache",
          "organSystem": "Nervous system disorders",
          "sourceVocabulary": "MedDRA 26.0",
          "assessmentType": "SYSTEMATIC_ASSESSMENT",
          "stats": [
            {
              "groupId": "EG000",
              "numAffected": 0,
              "numAtRisk": 18
            },
            {
              "groupId": "EG001",
              "numAffected": 2,
              "numAtRisk": 18
            },
            {
              "groupId": "EG002",
              "numAffected": 0,
              "numAtRisk": 16
            },
            {
              "groupId": "EG003",
              "numAffected": 5,
              "numAtRisk": 45
            },
            {
              "groupId": "EG004",
              "numAffected": 2,
              "numAtRisk": 48
            },
            {
              "groupId": "EG005",
              "numAffected": 3,
              "numAtRisk": 41
            }
          ]
        },
        {
          "term": "Dizziness",
          "organSystem": "Nervous system disorders",
          "sourceVocabulary": "MedDRA 26.0",
          "assessmentType": "SYSTEMATIC_ASSESSMENT",
          "stats": [
            {
              "groupId": "EG000",
              "numAffected": 0,
              "numAtRisk": 18
            },
            {
              "groupId": "EG001",
              "numAffected": 1,
              "numAtRisk": 18
            },
            {
              "groupId": "EG002",
              "numAffected": 0,
              "numAtRisk": 16
            },
            {
              "groupId": "EG003",
              "numAffected": 1,
              "numAtRisk": 45
            },
            {
              "groupId": "EG004",
              "numAffected": 0,
              "numAtRisk": 48
            },
            {
              "groupId": "EG005",
              "numAffected": 1,
              "numAtRisk": 41
            }
          ]
        },
        {
          "term": "Dysgeusia",
          "organSystem": "Nervous system disorders",
          "sourceVocabulary": "MedDRA 26.0",
          "assessmentType": "SYSTEMATIC_ASSESSMENT",
          "stats": [
            {
              "groupId": "EG000",
              "numAffected": 0,
              "numAtRisk": 18
            },
            {
              "groupId": "EG001",
              "numAffected": 0,
              "numAtRisk": 18
            },
            {
              "groupId": "EG002",
              "numAffected": 3,
              "numAtRisk": 16
            },
            {
              "groupId": "EG003",
              "numAffected": 0,
              "numAtRisk": 45
            },
            {
              "groupId": "EG004",
              "numAffected": 0,
              "numAtRisk": 48
            },
            {
              "groupId": "EG005",
              "numAffected": 0,
              "numAtRisk": 41
            }
          ]
        },
        {
          "term": "Metabolic encephalopathy",
          "organSystem": "Nervous system disorders",
          "sourceVocabulary": "MedDRA 26.0",
          "assessmentType": "SYSTEMATIC_ASSESSMENT",
          "stats": [
            {
              "groupId": "EG000",
              "numAffected": 1,
              "numAtRisk": 18
            },
            {
              "groupId": "EG001",
              "numAffected": 0,
              "numAtRisk": 18
            },
            {
              "groupId": "EG002",
              "numAffected": 0,
              "numAtRisk": 16
            },
            {
              "groupId": "EG003",
              "numAffected": 0,
              "numAtRisk": 45
            },
            {
              "groupId": "EG004",
              "numAffected": 0,
              "numAtRisk": 48
            },
            {
              "groupId": "EG005",
              "numAffected": 0,
              "numAtRisk": 41
            }
          ]
        },
        {
          "term": "Neuropathy peripheral",
          "organSystem": "Nervous system disorders",
          "sourceVocabulary": "MedDRA 26.0",
          "assessmentType": "SYSTEMATIC_ASSESSMENT",
          "stats": [
            {
              "groupId": "EG000",
              "numAffected": 1,
              "numAtRisk": 18
            },
            {
              "groupId": "EG001",
              "numAffected": 0,
              "numAtRisk": 18
            },
            {
              "groupId": "EG002",
              "numAffected": 0,
              "numAtRisk": 16
            },
            {
              "groupId": "EG003",
              "numAffected": 0,
              "numAtRisk": 45
            },
            {
              "groupId": "EG004",
              "numAffected": 0,
              "numAtRisk": 48
            },
            {
              "groupId": "EG005",
              "numAffected": 0,
              "numAtRisk": 41
            }
          ]
        },
        {
          "term": "Paraesthesia",
          "organSystem": "Nervous system disorders",
          "sourceVocabulary": "MedDRA 26.0",
          "assessmentType": "SYSTEMATIC_ASSESSMENT",
          "stats": [
            {
              "groupId": "EG000",
              "numAffected": 1,
              "numAtRisk": 18
            },
            {
              "groupId": "EG001",
              "numAffected": 0,
              "numAtRisk": 18
            },
            {
              "groupId": "EG002",
              "numAffected": 0,
              "numAtRisk": 16
            },
            {
              "groupId": "EG003",
              "numAffected": 0,
              "numAtRisk": 45
            },
            {
              "groupId": "EG004",
              "numAffected": 0,
              "numAtRisk": 48
            },
            {
              "groupId": "EG005",
              "numAffected": 0,
              "numAtRisk": 41
            }
          ]
        },
        {
          "term": "Syncope",
          "organSystem": "Nervous system disorders",
          "sourceVocabulary": "MedDRA 26.0",
          "assessmentType": "SYSTEMATIC_ASSESSMENT",
          "stats": [
            {
              "groupId": "EG000",
              "numAffected": 0,
              "numAtRisk": 18
            },
            {
              "groupId": "EG001",
              "numAffected": 1,
              "numAtRisk": 18
            },
            {
              "groupId": "EG002",
              "numAffected": 0,
              "numAtRisk": 16
            },
            {
              "groupId": "EG003",
              "numAffected": 0,
              "numAtRisk": 45
            },
            {
              "groupId": "EG004",
              "numAffected": 0,
              "numAtRisk": 48
            },
            {
              "groupId": "EG005",
              "numAffected": 0,
              "numAtRisk": 41
            }
          ]
        },
        {
          "term": "Oedema peripheral",
          "organSystem": "General disorders",
          "sourceVocabulary": "MedDRA 26.0",
          "assessmentType": "SYSTEMATIC_ASSESSMENT",
          "stats": [
            {
              "groupId": "EG000",
              "numAffected": 1,
              "numAtRisk": 18
            },
            {
              "groupId": "EG001",
              "numAffected": 0,
              "numAtRisk": 18
            },
            {
              "groupId": "EG002",
              "numAffected": 0,
              "numAtRisk": 16
            },
            {
              "groupId": "EG003",
              "numAffected": 1,
              "numAtRisk": 45
            },
            {
              "groupId": "EG004",
              "numAffected": 1,
              "numAtRisk": 48
            },
            {
              "groupId": "EG005",
              "numAffected": 2,
              "numAtRisk": 41
            }
          ]
        },
        {
          "term": "Fatigue",
          "organSystem": "General disorders",
          "sourceVocabulary": "MedDRA 26.0",
          "assessmentType": "SYSTEMATIC_ASSESSMENT",
          "stats": [
            {
              "groupId": "EG000",
              "numAffected": 2,
              "numAtRisk": 18
            },
            {
              "groupId": "EG001",
              "numAffected": 0,
              "numAtRisk": 18
            },
            {
              "groupId": "EG002",
              "numAffected": 0,
              "numAtRisk": 16
            },
            {
              "groupId": "EG003",
              "numAffected": 1,
              "numAtRisk": 45
            },
            {
              "groupId": "EG004",
              "numAffected": 1,
              "numAtRisk": 48
            },
            {
              "groupId": "EG005",
              "numAffected": 0,
              "numAtRisk": 41
            }
          ]
        },
        {
          "term": "Chest discomfort",
          "organSystem": "General disorders",
          "sourceVocabulary": "MedDRA 26.0",
          "assessmentType": "SYSTEMATIC_ASSESSMENT",
          "stats": [
            {
              "groupId": "EG000",
              "numAffected": 2,
              "numAtRisk": 18
            },
            {
              "groupId": "EG001",
              "numAffected": 0,
              "numAtRisk": 18
            },
            {
              "groupId": "EG002",
              "numAffected": 0,
              "numAtRisk": 16
            },
            {
              "groupId": "EG003",
              "numAffected": 0,
              "numAtRisk": 45
            },
            {
              "groupId": "EG004",
              "numAffected": 0,
              "numAtRisk": 48
            },
            {
              "groupId": "EG005",
              "numAffected": 0,
              "numAtRisk": 41
            }
          ]
        },
        {
          "term": "Catheter site haemorrhage",
          "organSystem": "General disorders",
          "sourceVocabulary": "MedDRA 26.0",
          "assessmentType": "SYSTEMATIC_ASSESSMENT",
          "stats": [
            {
              "groupId": "EG000",
              "numAffected": 1,
              "numAtRisk": 18
            },
            {
              "groupId": "EG001",
              "numAffected": 0,
              "numAtRisk": 18
            },
            {
              "groupId": "EG002",
              "numAffected": 0,
              "numAtRisk": 16
            },
            {
              "groupId": "EG003",
              "numAffected": 0,
              "numAtRisk": 45
            },
            {
              "groupId": "EG004",
              "numAffected": 0,
              "numAtRisk": 48
            },
            {
              "groupId": "EG005",
              "numAffected": 0,
              "numAtRisk": 41
            }
          ]
        },
        {
          "term": "Infusion site reaction",
          "organSystem": "General disorders",
          "sourceVocabulary": "MedDRA 26.0",
          "assessmentType": "SYSTEMATIC_ASSESSMENT",
          "stats": [
            {
              "groupId": "EG000",
              "numAffected": 0,
              "numAtRisk": 18
            },
            {
              "groupId": "EG001",
              "numAffected": 0,
              "numAtRisk": 18
            },
            {
              "groupId": "EG002",
              "numAffected": 1,
              "numAtRisk": 16
            },
            {
              "groupId": "EG003",
              "numAffected": 0,
              "numAtRisk": 45
            },
            {
              "groupId": "EG004",
              "numAffected": 0,
              "numAtRisk": 48
            },
            {
              "groupId": "EG005",
              "numAffected": 0,
              "numAtRisk": 41
            }
          ]
        },
        {
          "term": "Pain",
          "organSystem": "General disorders",
          "sourceVocabulary": "MedDRA 26.0",
          "assessmentType": "SYSTEMATIC_ASSESSMENT",
          "stats": [
            {
              "groupId": "EG000",
              "numAffected": 1,
              "numAtRisk": 18
            },
            {
              "groupId": "EG001",
              "numAffected": 0,
              "numAtRisk": 18
            },
            {
              "groupId": "EG002",
              "numAffected": 0,
              "numAtRisk": 16
            },
            {
              "groupId": "EG003",
              "numAffected": 0,
              "numAtRisk": 45
            },
            {
              "groupId": "EG004",
              "numAffected": 0,
              "numAtRisk": 48
            },
            {
              "groupId": "EG005",
              "numAffected": 0,
              "numAtRisk": 41
            }
          ]
        },
        {
          "term": "Arthralgia",
          "organSystem": "Musculoskeletal and connective tissue disorders",
          "sourceVocabulary": "MedDRA 26.0",
          "assessmentType": "SYSTEMATIC_ASSESSMENT",
          "stats": [
            {
              "groupId": "EG000",
              "numAffected": 1,
              "numAtRisk": 18
            },
            {
              "groupId": "EG001",
              "numAffected": 0,
              "numAtRisk": 18
            },
            {
              "groupId": "EG002",
              "numAffected": 2,
              "numAtRisk": 16
            },
            {
              "groupId": "EG003",
              "numAffected": 1,
              "numAtRisk": 45
            },
            {
              "groupId": "EG004",
              "numAffected": 0,
              "numAtRisk": 48
            },
            {
              "groupId": "EG005",
              "numAffected": 1,
              "numAtRisk": 41
            }
          ]
        },
        {
          "term": "Pain in extremity",
          "organSystem": "Musculoskeletal and connective tissue disorders",
          "sourceVocabulary": "MedDRA 26.0",
          "assessmentType": "SYSTEMATIC_ASSESSMENT",
          "stats": [
            {
              "groupId": "EG000",
              "numAffected": 0,
              "numAtRisk": 18
            },
            {
              "groupId": "EG001",
              "numAffected": 1,
              "numAtRisk": 18
            },
            {
              "groupId": "EG002",
              "numAffected": 0,
              "numAtRisk": 16
            },
            {
              "groupId": "EG003",
              "numAffected": 2,
              "numAtRisk": 45
            },
            {
              "groupId": "EG004",
              "numAffected": 0,
              "numAtRisk": 48
            },
            {
              "groupId": "EG005",
              "numAffected": 1,
              "numAtRisk": 41
            }
          ]
        },
        {
          "term": "Back pain",
          "organSystem": "Musculoskeletal and connective tissue disorders",
          "sourceVocabulary": "MedDRA 26.0",
          "assessmentType": "SYSTEMATIC_ASSESSMENT",
          "stats": [
            {
              "groupId": "EG000",
              "numAffected": 0,
              "numAtRisk": 18
            },
            {
              "groupId": "EG001",
              "numAffected": 0,
              "numAtRisk": 18
            },
            {
              "groupId": "EG002",
              "numAffected": 1,
              "numAtRisk": 16
            },
            {
              "groupId": "EG003",
              "numAffected": 0,
              "numAtRisk": 45
            },
            {
              "groupId": "EG004",
              "numAffected": 0,
              "numAtRisk": 48
            },
            {
              "groupId": "EG005",
              "numAffected": 0,
              "numAtRisk": 41
            }
          ]
        },
        {
          "term": "Joint stiffness",
          "organSystem": "Musculoskeletal and connective tissue disorders",
          "sourceVocabulary": "MedDRA 26.0",
          "assessmentType": "SYSTEMATIC_ASSESSMENT",
          "stats": [
            {
              "groupId": "EG000",
              "numAffected": 1,
              "numAtRisk": 18
            },
            {
              "groupId": "EG001",
              "numAffected": 0,
              "numAtRisk": 18
            },
            {
              "groupId": "EG002",
              "numAffected": 0,
              "numAtRisk": 16
            },
            {
              "groupId": "EG003",
              "numAffected": 0,
              "numAtRisk": 45
            },
            {
              "groupId": "EG004",
              "numAffected": 0,
              "numAtRisk": 48
            },
            {
              "groupId": "EG005",
              "numAffected": 0,
              "numAtRisk": 41
            }
          ]
        },
        {
          "term": "Muscle spasms",
          "organSystem": "Musculoskeletal and connective tissue disorders",
          "sourceVocabulary": "MedDRA 26.0",
          "assessmentType": "SYSTEMATIC_ASSESSMENT",
          "stats": [
            {
              "groupId": "EG000",
              "numAffected": 1,
              "numAtRisk": 18
            },
            {
              "groupId": "EG001",
              "numAffected": 0,
              "numAtRisk": 18
            },
            {
              "groupId": "EG002",
              "numAffected": 0,
              "numAtRisk": 16
            },
            {
              "groupId": "EG003",
              "numAffected": 0,
              "numAtRisk": 45
            },
            {
              "groupId": "EG004",
              "numAffected": 0,
              "numAtRisk": 48
            },
            {
              "groupId": "EG005",
              "numAffected": 0,
              "numAtRisk": 41
            }
          ]
        },
        {
          "term": "Musculoskeletal pain",
          "organSystem": "Musculoskeletal and connective tissue disorders",
          "sourceVocabulary": "MedDRA 26.0",
          "assessmentType": "SYSTEMATIC_ASSESSMENT",
          "stats": [
            {
              "groupId": "EG000",
              "numAffected": 0,
              "numAtRisk": 18
            },
            {
              "groupId": "EG001",
              "numAffected": 0,
              "numAtRisk": 18
            },
            {
              "groupId": "EG002",
              "numAffected": 1,
              "numAtRisk": 16
            },
            {
              "groupId": "EG003",
              "numAffected": 0,
              "numAtRisk": 45
            },
            {
              "groupId": "EG004",
              "numAffected": 0,
              "numAtRisk": 48
            },
            {
              "groupId": "EG005",
              "numAffected": 0,
              "numAtRisk": 41
            }
          ]
        },
        {
          "term": "Myalgia",
          "organSystem": "Musculoskeletal and connective tissue disorders",
          "sourceVocabulary": "MedDRA 26.0",
          "assessmentType": "SYSTEMATIC_ASSESSMENT",
          "stats": [
            {
              "groupId": "EG000",
              "numAffected": 1,
              "numAtRisk": 18
            },
            {
              "groupId": "EG001",
              "numAffected": 0,
              "numAtRisk": 18
            },
            {
              "groupId": "EG002",
              "numAffected": 0,
              "numAtRisk": 16
            },
            {
              "groupId": "EG003",
              "numAffected": 0,
              "numAtRisk": 45
            },
            {
              "groupId": "EG004",
              "numAffected": 0,
              "numAtRisk": 48
            },
            {
              "groupId": "EG005",
              "numAffected": 0,
              "numAtRisk": 41
            }
          ]
        },
        {
          "term": "Blood creatinine increased",
          "organSystem": "Investigations",
          "sourceVocabulary": "MedDRA 26.0",
          "assessmentType": "SYSTEMATIC_ASSESSMENT",
          "stats": [
            {
              "groupId": "EG000",
              "numAffected": 1,
              "numAtRisk": 18
            },
            {
              "groupId": "EG001",
              "numAffected": 0,
              "numAtRisk": 18
            },
            {
              "groupId": "EG002",
              "numAffected": 0,
              "numAtRisk": 16
            },
            {
              "groupId": "EG003",
              "numAffected": 1,
              "numAtRisk": 45
            },
            {
              "groupId": "EG004",
              "numAffected": 0,
              "numAtRisk": 48
            },
            {
              "groupId": "EG005",
              "numAffected": 0,
              "numAtRisk": 41
            }
          ]
        },
        {
          "term": "Brain natriuretic peptide increased",
          "organSystem": "Investigations",
          "sourceVocabulary": "MedDRA 26.0",
          "assessmentType": "SYSTEMATIC_ASSESSMENT",
          "stats": [
            {
              "groupId": "EG000",
              "numAffected": 0,
              "numAtRisk": 18
            },
            {
              "groupId": "EG001",
              "numAffected": 0,
              "numAtRisk": 18
            },
            {
              "groupId": "EG002",
              "numAffected": 1,
              "numAtRisk": 16
            },
            {
              "groupId": "EG003",
              "numAffected": 0,
              "numAtRisk": 45
            },
            {
              "groupId": "EG004",
              "numAffected": 1,
              "numAtRisk": 48
            },
            {
              "groupId": "EG005",
              "numAffected": 0,
              "numAtRisk": 41
            }
          ]
        },
        {
          "term": "N-terminal prohormone brain natriuretic peptide increased",
          "organSystem": "Investigations",
          "sourceVocabulary": "MedDRA 26.0",
          "assessmentType": "SYSTEMATIC_ASSESSMENT",
          "stats": [
            {
              "groupId": "EG000",
              "numAffected": 1,
              "numAtRisk": 18
            },
            {
              "groupId": "EG001",
              "numAffected": 1,
              "numAtRisk": 18
            },
            {
              "groupId": "EG002",
              "numAffected": 0,
              "numAtRisk": 16
            },
            {
              "groupId": "EG003",
              "numAffected": 0,
              "numAtRisk": 45
            },
            {
              "groupId": "EG004",
              "numAffected": 0,
              "numAtRisk": 48
            },
            {
              "groupId": "EG005",
              "numAffected": 0,
              "numAtRisk": 41
            }
          ]
        },
        {
          "term": "Oxygen saturation decreased",
          "organSystem": "Investigations",
          "sourceVocabulary": "MedDRA 26.0",
          "assessmentType": "SYSTEMATIC_ASSESSMENT",
          "stats": [
            {
              "groupId": "EG000",
              "numAffected": 0,
              "numAtRisk": 18
            },
            {
              "groupId": "EG001",
              "numAffected": 2,
              "numAtRisk": 18
            },
            {
              "groupId": "EG002",
              "numAffected": 0,
              "numAtRisk": 16
            },
            {
              "groupId": "EG003",
              "numAffected": 0,
              "numAtRisk": 45
            },
            {
              "groupId": "EG004",
              "numAffected": 0,
              "numAtRisk": 48
            },
            {
              "groupId": "EG005",
              "numAffected": 0,
              "numAtRisk": 41
            }
          ]
        },
        {
          "term": "Platelet count decreased",
          "organSystem": "Investigations",
          "sourceVocabulary": "MedDRA 26.0",
          "assessmentType": "SYSTEMATIC_ASSESSMENT",
          "stats": [
            {
              "groupId": "EG000",
              "numAffected": 0,
              "numAtRisk": 18
            },
            {
              "groupId": "EG001",
              "numAffected": 0,
              "numAtRisk": 18
            },
            {
              "groupId": "EG002",
              "numAffected": 1,
              "numAtRisk": 16
            },
            {
              "groupId": "EG003",
              "numAffected": 1,
              "numAtRisk": 45
            },
            {
              "groupId": "EG004",
              "numAffected": 0,
              "numAtRisk": 48
            },
            {
              "groupId": "EG005",
              "numAffected": 0,
              "numAtRisk": 41
            }
          ]
        },
        {
          "term": "Blood glucose decreased",
          "organSystem": "Investigations",
          "sourceVocabulary": "MedDRA 26.0",
          "assessmentType": "SYSTEMATIC_ASSESSMENT",
          "stats": [
            {
              "groupId": "EG000",
              "numAffected": 1,
              "numAtRisk": 18
            },
            {
              "groupId": "EG001",
              "numAffected": 0,
              "numAtRisk": 18
            },
            {
              "groupId": "EG002",
              "numAffected": 0,
              "numAtRisk": 16
            },
            {
              "groupId": "EG003",
              "numAffected": 0,
              "numAtRisk": 45
            },
            {
              "groupId": "EG004",
              "numAffected": 0,
              "numAtRisk": 48
            },
            {
              "groupId": "EG005",
              "numAffected": 0,
              "numAtRisk": 41
            }
          ]
        },
        {
          "term": "Blood uric acid increased",
          "organSystem": "Investigations",
          "sourceVocabulary": "MedDRA 26.0",
          "assessmentType": "SYSTEMATIC_ASSESSMENT",
          "stats": [
            {
              "groupId": "EG000",
              "numAffected": 1,
              "numAtRisk": 18
            },
            {
              "groupId": "EG001",
              "numAffected": 0,
              "numAtRisk": 18
            },
            {
              "groupId": "EG002",
              "numAffected": 0,
              "numAtRisk": 16
            },
            {
              "groupId": "EG003",
              "numAffected": 0,
              "numAtRisk": 45
            },
            {
              "groupId": "EG004",
              "numAffected": 0,
              "numAtRisk": 48
            },
            {
              "groupId": "EG005",
              "numAffected": 0,
              "numAtRisk": 41
            }
          ]
        },
        {
          "term": "Forced expiratory volume decreased",
          "organSystem": "Investigations",
          "sourceVocabulary": "MedDRA 26.0",
          "assessmentType": "SYSTEMATIC_ASSESSMENT",
          "stats": [
            {
              "groupId": "EG000",
              "numAffected": 1,
              "numAtRisk": 18
            },
            {
              "groupId": "EG001",
              "numAffected": 0,
              "numAtRisk": 18
            },
            {
              "groupId": "EG002",
              "numAffected": 0,
              "numAtRisk": 16
            },
            {
              "groupId": "EG003",
              "numAffected": 0,
              "numAtRisk": 45
            },
            {
              "groupId": "EG004",
              "numAffected": 0,
              "numAtRisk": 48
            },
            {
              "groupId": "EG005",
              "numAffected": 0,
              "numAtRisk": 41
            }
          ]
        },
        {
          "term": "Glomerular filtration rate decreased",
          "organSystem": "Investigations",
          "sourceVocabulary": "MedDRA 26.0",
          "assessmentType": "SYSTEMATIC_ASSESSMENT",
          "stats": [
            {
              "groupId": "EG000",
              "numAffected": 1,
              "numAtRisk": 18
            },
            {
              "groupId": "EG001",
              "numAffected": 0,
              "numAtRisk": 18
            },
            {
              "groupId": "EG002",
              "numAffected": 0,
              "numAtRisk": 16
            },
            {
              "groupId": "EG003",
              "numAffected": 0,
              "numAtRisk": 45
            },
            {
              "groupId": "EG004",
              "numAffected": 0,
              "numAtRisk": 48
            },
            {
              "groupId": "EG005",
              "numAffected": 0,
              "numAtRisk": 41
            }
          ]
        },
        {
          "term": "Heart rate increased",
          "organSystem": "Investigations",
          "sourceVocabulary": "MedDRA 26.0",
          "assessmentType": "SYSTEMATIC_ASSESSMENT",
          "stats": [
            {
              "groupId": "EG000",
              "numAffected": 1,
              "numAtRisk": 18
            },
            {
              "groupId": "EG001",
              "numAffected": 0,
              "numAtRisk": 18
            },
            {
              "groupId": "EG002",
              "numAffected": 0,
              "numAtRisk": 16
            },
            {
              "groupId": "EG003",
              "numAffected": 0,
              "numAtRisk": 45
            },
            {
              "groupId": "EG004",
              "numAffected": 0,
              "numAtRisk": 48
            },
            {
              "groupId": "EG005",
              "numAffected": 0,
              "numAtRisk": 41
            }
          ]
        },
        {
          "term": "Neutrophil count decreased",
          "organSystem": "Investigations",
          "sourceVocabulary": "MedDRA 26.0",
          "assessmentType": "SYSTEMATIC_ASSESSMENT",
          "stats": [
            {
              "groupId": "EG000",
              "numAffected": 0,
              "numAtRisk": 18
            },
            {
              "groupId": "EG001",
              "numAffected": 0,
              "numAtRisk": 18
            },
            {
              "groupId": "EG002",
              "numAffected": 1,
              "numAtRisk": 16
            },
            {
              "groupId": "EG003",
              "numAffected": 0,
              "numAtRisk": 45
            },
            {
              "groupId": "EG004",
              "numAffected": 0,
              "numAtRisk": 48
            },
            {
              "groupId": "EG005",
              "numAffected": 0,
              "numAtRisk": 41
            }
          ]
        },
        {
          "term": "Weight decreased",
          "organSystem": "Investigations",
          "sourceVocabulary": "MedDRA 26.0",
          "assessmentType": "SYSTEMATIC_ASSESSMENT",
          "stats": [
            {
              "groupId": "EG000",
              "numAffected": 0,
              "numAtRisk": 18
            },
            {
              "groupId": "EG001",
              "numAffected": 1,
              "numAtRisk": 18
            },
            {
              "groupId": "EG002",
              "numAffected": 0,
              "numAtRisk": 16
            },
            {
              "groupId": "EG003",
              "numAffected": 0,
              "numAtRisk": 45
            },
            {
              "groupId": "EG004",
              "numAffected": 0,
              "numAtRisk": 48
            },
            {
              "groupId": "EG005",
              "numAffected": 0,
              "numAtRisk": 41
            }
          ]
        },
        {
          "term": "White blood cell count decreased",
          "organSystem": "Investigations",
          "sourceVocabulary": "MedDRA 26.0",
          "assessmentType": "SYSTEMATIC_ASSESSMENT",
          "stats": [
            {
              "groupId": "EG000",
              "numAffected": 0,
              "numAtRisk": 18
            },
            {
              "groupId": "EG001",
              "numAffected": 0,
              "numAtRisk": 18
            },
            {
              "groupId": "EG002",
              "numAffected": 1,
              "numAtRisk": 16
            },
            {
              "groupId": "EG003",
              "numAffected": 0,
              "numAtRisk": 45
            },
            {
              "groupId": "EG004",
              "numAffected": 0,
              "numAtRisk": 48
            },
            {
              "groupId": "EG005",
              "numAffected": 0,
              "numAtRisk": 41
            }
          ]
        },
        {
          "term": "Hypokalaemia",
          "organSystem": "Metabolism and nutrition disorders",
          "sourceVocabulary": "MedDRA 26.0",
          "assessmentType": "SYSTEMATIC_ASSESSMENT",
          "stats": [
            {
              "groupId": "EG000",
              "numAffected": 2,
              "numAtRisk": 18
            },
            {
              "groupId": "EG001",
              "numAffected": 1,
              "numAtRisk": 18
            },
            {
              "groupId": "EG002",
              "numAffected": 1,
              "numAtRisk": 16
            },
            {
              "groupId": "EG003",
              "numAffected": 1,
              "numAtRisk": 45
            },
            {
              "groupId": "EG004",
              "numAffected": 1,
              "numAtRisk": 48
            },
            {
              "groupId": "EG005",
              "numAffected": 0,
              "numAtRisk": 41
            }
          ]
        },
        {
          "term": "Iron deficiency",
          "organSystem": "Metabolism and nutrition disorders",
          "sourceVocabulary": "MedDRA 26.0",
          "assessmentType": "SYSTEMATIC_ASSESSMENT",
          "stats": [
            {
              "groupId": "EG000",
              "numAffected": 1,
              "numAtRisk": 18
            },
            {
              "groupId": "EG001",
              "numAffected": 0,
              "numAtRisk": 18
            },
            {
              "groupId": "EG002",
              "numAffected": 0,
              "numAtRisk": 16
            },
            {
              "groupId": "EG003",
              "numAffected": 2,
              "numAtRisk": 45
            },
            {
              "groupId": "EG004",
              "numAffected": 1,
              "numAtRisk": 48
            },
            {
              "groupId": "EG005",
              "numAffected": 0,
              "numAtRisk": 41
            }
          ]
        },
        {
          "term": "Fluid retention",
          "organSystem": "Metabolism and nutrition disorders",
          "sourceVocabulary": "MedDRA 26.0",
          "assessmentType": "SYSTEMATIC_ASSESSMENT",
          "stats": [
            {
              "groupId": "EG000",
              "numAffected": 0,
              "numAtRisk": 18
            },
            {
              "groupId": "EG001",
              "numAffected": 0,
              "numAtRisk": 18
            },
            {
              "groupId": "EG002",
              "numAffected": 1,
              "numAtRisk": 16
            },
            {
              "groupId": "EG003",
              "numAffected": 0,
              "numAtRisk": 45
            },
            {
              "groupId": "EG004",
              "numAffected": 0,
              "numAtRisk": 48
            },
            {
              "groupId": "EG005",
              "numAffected": 0,
              "numAtRisk": 41
            }
          ]
        },
        {
          "term": "Hyperglycaemia",
          "organSystem": "Metabolism and nutrition disorders",
          "sourceVocabulary": "MedDRA 26.0",
          "assessmentType": "SYSTEMATIC_ASSESSMENT",
          "stats": [
            {
              "groupId": "EG000",
              "numAffected": 1,
              "numAtRisk": 18
            },
            {
              "groupId": "EG001",
              "numAffected": 0,
              "numAtRisk": 18
            },
            {
              "groupId": "EG002",
              "numAffected": 0,
              "numAtRisk": 16
            },
            {
              "groupId": "EG003",
              "numAffected": 0,
              "numAtRisk": 45
            },
            {
              "groupId": "EG004",
              "numAffected": 0,
              "numAtRisk": 48
            },
            {
              "groupId": "EG005",
              "numAffected": 0,
              "numAtRisk": 41
            }
          ]
        },
        {
          "term": "Hyperkalaemia",
          "organSystem": "Metabolism and nutrition disorders",
          "sourceVocabulary": "MedDRA 26.0",
          "assessmentType": "SYSTEMATIC_ASSESSMENT",
          "stats": [
            {
              "groupId": "EG000",
              "numAffected": 1,
              "numAtRisk": 18
            },
            {
              "groupId": "EG001",
              "numAffected": 0,
              "numAtRisk": 18
            },
            {
              "groupId": "EG002",
              "numAffected": 0,
              "numAtRisk": 16
            },
            {
              "groupId": "EG003",
              "numAffected": 0,
              "numAtRisk": 45
            },
            {
              "groupId": "EG004",
              "numAffected": 0,
              "numAtRisk": 48
            },
            {
              "groupId": "EG005",
              "numAffected": 0,
              "numAtRisk": 41
            }
          ]
        },
        {
          "term": "Hypoalbuminaemia",
          "organSystem": "Metabolism and nutrition disorders",
          "sourceVocabulary": "MedDRA 26.0",
          "assessmentType": "SYSTEMATIC_ASSESSMENT",
          "stats": [
            {
              "groupId": "EG000",
              "numAffected": 1,
              "numAtRisk": 18
            },
            {
              "groupId": "EG001",
              "numAffected": 0,
              "numAtRisk": 18
            },
            {
              "groupId": "EG002",
              "numAffected": 0,
              "numAtRisk": 16
            },
            {
              "groupId": "EG003",
              "numAffected": 0,
              "numAtRisk": 45
            },
            {
              "groupId": "EG004",
              "numAffected": 0,
              "numAtRisk": 48
            },
            {
              "groupId": "EG005",
              "numAffected": 0,
              "numAtRisk": 41
            }
          ]
        },
        {
          "term": "Hypoglycaemia",
          "organSystem": "Metabolism and nutrition disorders",
          "sourceVocabulary": "MedDRA 26.0",
          "assessmentType": "SYSTEMATIC_ASSESSMENT",
          "stats": [
            {
              "groupId": "EG000",
              "numAffected": 1,
              "numAtRisk": 18
            },
            {
              "groupId": "EG001",
              "numAffected": 0,
              "numAtRisk": 18
            },
            {
              "groupId": "EG002",
              "numAffected": 0,
              "numAtRisk": 16
            },
            {
              "groupId": "EG003",
              "numAffected": 0,
              "numAtRisk": 45
            },
            {
              "groupId": "EG004",
              "numAffected": 0,
              "numAtRisk": 48
            },
            {
              "groupId": "EG005",
              "numAffected": 0,
              "numAtRisk": 41
            }
          ]
        },
        {
          "term": "Thrombocytopenia",
          "organSystem": "Blood and lymphatic system disorders",
          "sourceVocabulary": "MedDRA 26.0",
          "assessmentType": "SYSTEMATIC_ASSESSMENT",
          "stats": [
            {
              "groupId": "EG000",
              "numAffected": 1,
              "numAtRisk": 18
            },
            {
              "groupId": "EG001",
              "numAffected": 0,
              "numAtRisk": 18
            },
            {
              "groupId": "EG002",
              "numAffected": 0,
              "numAtRisk": 16
            },
            {
              "groupId": "EG003",
              "numAffected": 1,
              "numAtRisk": 45
            },
            {
              "groupId": "EG004",
              "numAffected": 0,
              "numAtRisk": 48
            },
            {
              "groupId": "EG005",
              "numAffected": 2,
              "numAtRisk": 41
            }
          ]
        },
        {
          "term": "Lymphadenopathy",
          "organSystem": "Blood and lymphatic system disorders",
          "sourceVocabulary": "MedDRA 26.0",
          "assessmentType": "SYSTEMATIC_ASSESSMENT",
          "stats": [
            {
              "groupId": "EG000",
              "numAffected": 0,
              "numAtRisk": 18
            },
            {
              "groupId": "EG001",
              "numAffected": 1,
              "numAtRisk": 18
            },
            {
              "groupId": "EG002",
              "numAffected": 0,
              "numAtRisk": 16
            },
            {
              "groupId": "EG003",
              "numAffected": 1,
              "numAtRisk": 45
            },
            {
              "groupId": "EG004",
              "numAffected": 0,
              "numAtRisk": 48
            },
            {
              "groupId": "EG005",
              "numAffected": 0,
              "numAtRisk": 41
            }
          ]
        },
        {
          "term": "Lymphopenia",
          "organSystem": "Blood and lymphatic system disorders",
          "sourceVocabulary": "MedDRA 26.0",
          "assessmentType": "SYSTEMATIC_ASSESSMENT",
          "stats": [
            {
              "groupId": "EG000",
              "numAffected": 0,
              "numAtRisk": 18
            },
            {
              "groupId": "EG001",
              "numAffected": 1,
              "numAtRisk": 18
            },
            {
              "groupId": "EG002",
              "numAffected": 0,
              "numAtRisk": 16
            },
            {
              "groupId": "EG003",
              "numAffected": 1,
              "numAtRisk": 45
            },
            {
              "groupId": "EG004",
              "numAffected": 0,
              "numAtRisk": 48
            },
            {
              "groupId": "EG005",
              "numAffected": 0,
              "numAtRisk": 41
            }
          ]
        },
        {
          "term": "Blood loss anaemia",
          "organSystem": "Blood and lymphatic system disorders",
          "sourceVocabulary": "MedDRA 26.0",
          "assessmentType": "SYSTEMATIC_ASSESSMENT",
          "stats": [
            {
              "groupId": "EG000",
              "numAffected": 1,
              "numAtRisk": 18
            },
            {
              "groupId": "EG001",
              "numAffected": 0,
              "numAtRisk": 18
            },
            {
              "groupId": "EG002",
              "numAffected": 0,
              "numAtRisk": 16
            },
            {
              "groupId": "EG003",
              "numAffected": 0,
              "numAtRisk": 45
            },
            {
              "groupId": "EG004",
              "numAffected": 0,
              "numAtRisk": 48
            },
            {
              "groupId": "EG005",
              "numAffected": 0,
              "numAtRisk": 41
            }
          ]
        },
        {
          "term": "Coagulopathy",
          "organSystem": "Blood and lymphatic system disorders",
          "sourceVocabulary": "MedDRA 26.0",
          "assessmentType": "SYSTEMATIC_ASSESSMENT",
          "stats": [
            {
              "groupId": "EG000",
              "numAffected": 1,
              "numAtRisk": 18
            },
            {
              "groupId": "EG001",
              "numAffected": 0,
              "numAtRisk": 18
            },
            {
              "groupId": "EG002",
              "numAffected": 0,
              "numAtRisk": 16
            },
            {
              "groupId": "EG003",
              "numAffected": 0,
              "numAtRisk": 45
            },
            {
              "groupId": "EG004",
              "numAffected": 0,
              "numAtRisk": 48
            },
            {
              "groupId": "EG005",
              "numAffected": 0,
              "numAtRisk": 41
            }
          ]
        },
        {
          "term": "Pancytopenia",
          "organSystem": "Blood and lymphatic system disorders",
          "sourceVocabulary": "MedDRA 26.0",
          "assessmentType": "SYSTEMATIC_ASSESSMENT",
          "stats": [
            {
              "groupId": "EG000",
              "numAffected": 0,
              "numAtRisk": 18
            },
            {
              "groupId": "EG001",
              "numAffected": 1,
              "numAtRisk": 18
            },
            {
              "groupId": "EG002",
              "numAffected": 0,
              "numAtRisk": 16
            },
            {
              "groupId": "EG003",
              "numAffected": 0,
              "numAtRisk": 45
            },
            {
              "groupId": "EG004",
              "numAffected": 0,
              "numAtRisk": 48
            },
            {
              "groupId": "EG005",
              "numAffected": 0,
              "numAtRisk": 41
            }
          ]
        },
        {
          "term": "Palpitations",
          "organSystem": "Cardiac disorders",
          "sourceVocabulary": "MedDRA 26.0",
          "assessmentType": "SYSTEMATIC_ASSESSMENT",
          "stats": [
            {
              "groupId": "EG000",
              "numAffected": 0,
              "numAtRisk": 18
            },
            {
              "groupId": "EG001",
              "numAffected": 1,
              "numAtRisk": 18
            },
            {
              "groupId": "EG002",
              "numAffected": 0,
              "numAtRisk": 16
            },
            {
              "groupId": "EG003",
              "numAffected": 1,
              "numAtRisk": 45
            },
            {
              "groupId": "EG004",
              "numAffected": 2,
              "numAtRisk": 48
            },
            {
              "groupId": "EG005",
              "numAffected": 0,
              "numAtRisk": 41
            }
          ]
        },
        {
          "term": "Pericardial effusion",
          "organSystem": "Cardiac disorders",
          "sourceVocabulary": "MedDRA 26.0",
          "assessmentType": "SYSTEMATIC_ASSESSMENT",
          "stats": [
            {
              "groupId": "EG000",
              "numAffected": 1,
              "numAtRisk": 18
            },
            {
              "groupId": "EG001",
              "numAffected": 0,
              "numAtRisk": 18
            },
            {
              "groupId": "EG002",
              "numAffected": 0,
              "numAtRisk": 16
            },
            {
              "groupId": "EG003",
              "numAffected": 1,
              "numAtRisk": 45
            },
            {
              "groupId": "EG004",
              "numAffected": 0,
              "numAtRisk": 48
            },
            {
              "groupId": "EG005",
              "numAffected": 0,
              "numAtRisk": 41
            }
          ]
        },
        {
          "term": "Tachycardia",
          "organSystem": "Cardiac disorders",
          "sourceVocabulary": "MedDRA 26.0",
          "assessmentType": "SYSTEMATIC_ASSESSMENT",
          "stats": [
            {
              "groupId": "EG000",
              "numAffected": 0,
              "numAtRisk": 18
            },
            {
              "groupId": "EG001",
              "numAffected": 2,
              "numAtRisk": 18
            },
            {
              "groupId": "EG002",
              "numAffected": 0,
              "numAtRisk": 16
            },
            {
              "groupId": "EG003",
              "numAffected": 0,
              "numAtRisk": 45
            },
            {
              "groupId": "EG004",
              "numAffected": 0,
              "numAtRisk": 48
            },
            {
              "groupId": "EG005",
              "numAffected": 0,
              "numAtRisk": 41
            }
          ]
        },
        {
          "term": "Pulmonary valve incompetence",
          "organSystem": "Cardiac disorders",
          "sourceVocabulary": "MedDRA 26.0",
          "assessmentType": "SYSTEMATIC_ASSESSMENT",
          "stats": [
            {
              "groupId": "EG000",
              "numAffected": 1,
              "numAtRisk": 18
            },
            {
              "groupId": "EG001",
              "numAffected": 0,
              "numAtRisk": 18
            },
            {
              "groupId": "EG002",
              "numAffected": 0,
              "numAtRisk": 16
            },
            {
              "groupId": "EG003",
              "numAffected": 0,
              "numAtRisk": 45
            },
            {
              "groupId": "EG004",
              "numAffected": 0,
              "numAtRisk": 48
            },
            {
              "groupId": "EG005",
              "numAffected": 0,
              "numAtRisk": 41
            }
          ]
        },
        {
          "term": "Supraventricular tachycardia",
          "organSystem": "Cardiac disorders",
          "sourceVocabulary": "MedDRA 26.0",
          "assessmentType": "SYSTEMATIC_ASSESSMENT",
          "stats": [
            {
              "groupId": "EG000",
              "numAffected": 0,
              "numAtRisk": 18
            },
            {
              "groupId": "EG001",
              "numAffected": 0,
              "numAtRisk": 18
            },
            {
              "groupId": "EG002",
              "numAffected": 1,
              "numAtRisk": 16
            },
            {
              "groupId": "EG003",
              "numAffected": 0,
              "numAtRisk": 45
            },
            {
              "groupId": "EG004",
              "numAffected": 0,
              "numAtRisk": 48
            },
            {
              "groupId": "EG005",
              "numAffected": 0,
              "numAtRisk": 41
            }
          ]
        },
        {
          "term": "Procedural pain",
          "organSystem": "Injury, poisoning and procedural complications",
          "sourceVocabulary": "MedDRA 26.0",
          "assessmentType": "SYSTEMATIC_ASSESSMENT",
          "stats": [
            {
              "groupId": "EG000",
              "numAffected": 1,
              "numAtRisk": 18
            },
            {
              "groupId": "EG001",
              "numAffected": 0,
              "numAtRisk": 18
            },
            {
              "groupId": "EG002",
              "numAffected": 0,
              "numAtRisk": 16
            },
            {
              "groupId": "EG003",
              "numAffected": 0,
              "numAtRisk": 45
            },
            {
              "groupId": "EG004",
              "numAffected": 1,
              "numAtRisk": 48
            },
            {
              "groupId": "EG005",
              "numAffected": 0,
              "numAtRisk": 41
            }
          ]
        },
        {
          "term": "Complications of transplanted lung",
          "organSystem": "Injury, poisoning and procedural complications",
          "sourceVocabulary": "MedDRA 26.0",
          "assessmentType": "SYSTEMATIC_ASSESSMENT",
          "stats": [
            {
              "groupId": "EG000",
              "numAffected": 1,
              "numAtRisk": 18
            },
            {
              "groupId": "EG001",
              "numAffected": 0,
              "numAtRisk": 18
            },
            {
              "groupId": "EG002",
              "numAffected": 0,
              "numAtRisk": 16
            },
            {
              "groupId": "EG003",
              "numAffected": 0,
              "numAtRisk": 45
            },
            {
              "groupId": "EG004",
              "numAffected": 0,
              "numAtRisk": 48
            },
            {
              "groupId": "EG005",
              "numAffected": 0,
              "numAtRisk": 41
            }
          ]
        },
        {
          "term": "Incision site pain",
          "organSystem": "Injury, poisoning and procedural complications",
          "sourceVocabulary": "MedDRA 26.0",
          "assessmentType": "SYSTEMATIC_ASSESSMENT",
          "stats": [
            {
              "groupId": "EG000",
              "numAffected": 1,
              "numAtRisk": 18
            },
            {
              "groupId": "EG001",
              "numAffected": 0,
              "numAtRisk": 18
            },
            {
              "groupId": "EG002",
              "numAffected": 0,
              "numAtRisk": 16
            },
            {
              "groupId": "EG003",
              "numAffected": 0,
              "numAtRisk": 45
            },
            {
              "groupId": "EG004",
              "numAffected": 0,
              "numAtRisk": 48
            },
            {
              "groupId": "EG005",
              "numAffected": 0,
              "numAtRisk": 41
            }
          ]
        },
        {
          "term": "Transplant dysfunction",
          "organSystem": "Injury, poisoning and procedural complications",
          "sourceVocabulary": "MedDRA 26.0",
          "assessmentType": "SYSTEMATIC_ASSESSMENT",
          "stats": [
            {
              "groupId": "EG000",
              "numAffected": 1,
              "numAtRisk": 18
            },
            {
              "groupId": "EG001",
              "numAffected": 0,
              "numAtRisk": 18
            },
            {
              "groupId": "EG002",
              "numAffected": 0,
              "numAtRisk": 16
            },
            {
              "groupId": "EG003",
              "numAffected": 0,
              "numAtRisk": 45
            },
            {
              "groupId": "EG004",
              "numAffected": 0,
              "numAtRisk": 48
            },
            {
              "groupId": "EG005",
              "numAffected": 0,
              "numAtRisk": 41
            }
          ]
        },
        {
          "term": "Wound haemorrhage",
          "organSystem": "Injury, poisoning and procedural complications",
          "sourceVocabulary": "MedDRA 26.0",
          "assessmentType": "SYSTEMATIC_ASSESSMENT",
          "stats": [
            {
              "groupId": "EG000",
              "numAffected": 0,
              "numAtRisk": 18
            },
            {
              "groupId": "EG001",
              "numAffected": 0,
              "numAtRisk": 18
            },
            {
              "groupId": "EG002",
              "numAffected": 1,
              "numAtRisk": 16
            },
            {
              "groupId": "EG003",
              "numAffected": 0,
              "numAtRisk": 45
            },
            {
              "groupId": "EG004",
              "numAffected": 0,
              "numAtRisk": 48
            },
            {
              "groupId": "EG005",
              "numAffected": 0,
              "numAtRisk": 41
            }
          ]
        },
        {
          "term": "Pruritus",
          "organSystem": "Skin and subcutaneous tissue disorders",
          "sourceVocabulary": "MedDRA 26.0",
          "assessmentType": "SYSTEMATIC_ASSESSMENT",
          "stats": [
            {
              "groupId": "EG000",
              "numAffected": 0,
              "numAtRisk": 18
            },
            {
              "groupId": "EG001",
              "numAffected": 1,
              "numAtRisk": 18
            },
            {
              "groupId": "EG002",
              "numAffected": 0,
              "numAtRisk": 16
            },
            {
              "groupId": "EG003",
              "numAffected": 0,
              "numAtRisk": 45
            },
            {
              "groupId": "EG004",
              "numAffected": 0,
              "numAtRisk": 48
            },
            {
              "groupId": "EG005",
              "numAffected": 1,
              "numAtRisk": 41
            }
          ]
        },
        {
          "term": "Rash maculo-papular",
          "organSystem": "Skin and subcutaneous tissue disorders",
          "sourceVocabulary": "MedDRA 26.0",
          "assessmentType": "SYSTEMATIC_ASSESSMENT",
          "stats": [
            {
              "groupId": "EG000",
              "numAffected": 1,
              "numAtRisk": 18
            },
            {
              "groupId": "EG001",
              "numAffected": 0,
              "numAtRisk": 18
            },
            {
              "groupId": "EG002",
              "numAffected": 0,
              "numAtRisk": 16
            },
            {
              "groupId": "EG003",
              "numAffected": 0,
              "numAtRisk": 45
            },
            {
              "groupId": "EG004",
              "numAffected": 0,
              "numAtRisk": 48
            },
            {
              "groupId": "EG005",
              "numAffected": 0,
              "numAtRisk": 41
            }
          ]
        },
        {
          "term": "Vertigo",
          "organSystem": "Ear and labyrinth disorders",
          "sourceVocabulary": "MedDRA 26.0",
          "assessmentType": "SYSTEMATIC_ASSESSMENT",
          "stats": [
            {
              "groupId": "EG000",
              "numAffected": 0,
              "numAtRisk": 18
            },
            {
              "groupId": "EG001",
              "numAffected": 1,
              "numAtRisk": 18
            },
            {
              "groupId": "EG002",
              "numAffected": 1,
              "numAtRisk": 16
            },
            {
              "groupId": "EG003",
              "numAffected": 0,
              "numAtRisk": 45
            },
            {
              "groupId": "EG004",
              "numAffected": 0,
              "numAtRisk": 48
            },
            {
              "groupId": "EG005",
              "numAffected": 0,
              "numAtRisk": 41
            }
          ]
        },
        {
          "term": "Anxiety",
          "organSystem": "Psychiatric disorders",
          "sourceVocabulary": "MedDRA 26.0",
          "assessmentType": "SYSTEMATIC_ASSESSMENT",
          "stats": [
            {
              "groupId": "EG000",
              "numAffected": 1,
              "numAtRisk": 18
            },
            {
              "groupId": "EG001",
              "numAffected": 1,
              "numAtRisk": 18
            },
            {
              "groupId": "EG002",
              "numAffected": 0,
              "numAtRisk": 16
            },
            {
              "groupId": "EG003",
              "numAffected": 0,
              "numAtRisk": 45
            },
            {
              "groupId": "EG004",
              "numAffected": 0,
              "numAtRisk": 48
            },
            {
              "groupId": "EG005",
              "numAffected": 0,
              "numAtRisk": 41
            }
          ]
        },
        {
          "term": "Insomnia",
          "organSystem": "Psychiatric disorders",
          "sourceVocabulary": "MedDRA 26.0",
          "assessmentType": "SYSTEMATIC_ASSESSMENT",
          "stats": [
            {
              "groupId": "EG000",
              "numAffected": 0,
              "numAtRisk": 18
            },
            {
              "groupId": "EG001",
              "numAffected": 1,
              "numAtRisk": 18
            },
            {
              "groupId": "EG002",
              "numAffected": 0,
              "numAtRisk": 16
            },
            {
              "groupId": "EG003",
              "numAffected": 0,
              "numAtRisk": 45
            },
            {
              "groupId": "EG004",
              "numAffected": 0,
              "numAtRisk": 48
            },
            {
              "groupId": "EG005",
              "numAffected": 0,
              "numAtRisk": 41
            }
          ]
        },
        {
          "term": "Hypotension",
          "organSystem": "Vascular disorders",
          "sourceVocabulary": "MedDRA 26.0",
          "assessmentType": "SYSTEMATIC_ASSESSMENT",
          "stats": [
            {
              "groupId": "EG000",
              "numAffected": 1,
              "numAtRisk": 18
            },
            {
              "groupId": "EG001",
              "numAffected": 0,
              "numAtRisk": 18
            },
            {
              "groupId": "EG002",
              "numAffected": 0,
              "numAtRisk": 16
            },
            {
              "groupId": "EG003",
              "numAffected": 0,
              "numAtRisk": 45
            },
            {
              "groupId": "EG004",
              "numAffected": 1,
              "numAtRisk": 48
            },
            {
              "groupId": "EG005",
              "numAffected": 0,
              "numAtRisk": 41
            }
          ]
        },
        {
          "term": "Liver injury",
          "organSystem": "Hepatobiliary disorders",
          "sourceVocabulary": "MedDRA 26.0",
          "assessmentType": "SYSTEMATIC_ASSESSMENT",
          "stats": [
            {
              "groupId": "EG000",
              "numAffected": 1,
              "numAtRisk": 18
            },
            {
              "groupId": "EG001",
              "numAffected": 0,
              "numAtRisk": 18
            },
            {
              "groupId": "EG002",
              "numAffected": 0,
              "numAtRisk": 16
            },
            {
              "groupId": "EG003",
              "numAffected": 0,
              "numAtRisk": 45
            },
            {
              "groupId": "EG004",
              "numAffected": 0,
              "numAtRisk": 48
            },
            {
              "groupId": "EG005",
              "numAffected": 0,
              "numAtRisk": 41
            }
          ]
        },
        {
          "term": "Uterine leiomyoma",
          "organSystem": "Neoplasms benign, malignant and unspecified (incl cysts and polyps)",
          "sourceVocabulary": "MedDRA 26.0",
          "assessmentType": "SYSTEMATIC_ASSESSMENT",
          "stats": [
            {
              "groupId": "EG000",
              "numAffected": 0,
              "numAtRisk": 18
            },
            {
              "groupId": "EG001",
              "numAffected": 1,
              "numAtRisk": 18
            },
            {
              "groupId": "EG002",
              "numAffected": 0,
              "numAtRisk": 16
            },
            {
              "groupId": "EG003",
              "numAffected": 0,
              "numAtRisk": 45
            },
            {
              "groupId": "EG004",
              "numAffected": 0,
              "numAtRisk": 48
            },
            {
              "groupId": "EG005",
              "numAffected": 0,
              "numAtRisk": 41
            }
          ]
        },
        {
          "term": "Bladder irritation",
          "organSystem": "Renal and urinary disorders",
          "sourceVocabulary": "MedDRA 26.0",
          "assessmentType": "SYSTEMATIC_ASSESSMENT",
          "stats": [
            {
              "groupId": "EG000",
              "numAffected": 0,
              "numAtRisk": 18
            },
            {
              "groupId": "EG001",
              "numAffected": 1,
              "numAtRisk": 18
            },
            {
              "groupId": "EG002",
              "numAffected": 0,
              "numAtRisk": 16
            },
            {
              "groupId": "EG003",
              "numAffected": 0,
              "numAtRisk": 45
            },
            {
              "groupId": "EG004",
              "numAffected": 0,
              "numAtRisk": 48
            },
            {
              "groupId": "EG005",
              "numAffected": 0,
              "numAtRisk": 41
            }
          ]
        }
      ]
    },
    "moreInfoModule": {
      "certainAgreement": {
        "piSponsorEmployee": false,
        "restrictiveAgreement": true
      },
      "pointOfContact": {
        "title": "Toll Free Number",
        "organization": "Aerovate Therapeutics",
        "email": "clinicaltrials@aerovatetx.com",
        "phone": "(888) 373-8110"
      }
    }
  },
  "documentSection": {
    "largeDocumentModule": {
      "largeDocs": [
        {
          "typeAbbrev": "Prot_SAP",
          "hasProtocol": true,
          "hasSap": true,
          "hasIcf": false,
          "label": "Study Protocol and Statistical Analysis Plan",
          "date": "2023-02-08",
          "uploadDate": "2024-09-06T13:04",
          "filename": "Prot_SAP_000.pdf",
          "size": 1520805
        }
      ]
    }
  },
  "derivedSection": {
    "miscInfoModule": {
      "versionHolder": "2025-05-19",
      "submissionTracking": {
        "firstMcpInfo": {
          "postDateStruct": {
            "date": "2024-10-03",
            "type": "ACTUAL"
          }
        }
      }
    },
    "conditionBrowseModule": {
      "meshes": [
        {
          "id": "D000081029",
          "term": "Pulmonary Arterial Hypertension"
        },
        {
          "id": "D065627",
          "term": "Familial Primary Pulmonary Hypertension"
        },
        {
          "id": "D006973",
          "term": "Hypertension"
        }
      ],
      "ancestors": [
        {
          "id": "D014652",
          "term": "Vascular Diseases"
        },
        {
          "id": "D002318",
          "term": "Cardiovascular Diseases"
        },
        {
          "id": "D006976",
          "term": "Hypertension, Pulmonary"
        },
        {
          "id": "D008171",
          "term": "Lung Diseases"
        },
        {
          "id": "D012140",
          "term": "Respiratory Tract Diseases"
        }
      ],
      "browseLeaves": [
        {
          "id": "M10024",
          "name": "Hypertension",
          "asFound": "Hypertension",
          "relevance": "HIGH"
        },
        {
          "id": "M2261",
          "name": "Pulmonary Arterial Hypertension",
          "asFound": "Pulmonary Arterial Hypertension",
          "relevance": "HIGH"
        },
        {
          "id": "M27137",
          "name": "Respiratory Aspiration",
          "relevance": "LOW"
        },
        {
          "id": "M10027",
          "name": "Hypertension, Pulmonary",
          "relevance": "LOW"
        },
        {
          "id": "M30541",
          "name": "Familial Primary Pulmonary Hypertension",
          "asFound": "Pulmonary Arterial Hypertension",
          "relevance": "HIGH"
        },
        {
          "id": "M17400",
          "name": "Vascular Diseases",
          "relevance": "LOW"
        },
        {
          "id": "M11168",
          "name": "Lung Diseases",
          "relevance": "LOW"
        },
        {
          "id": "M14977",
          "name": "Respiratory Tract Diseases",
          "relevance": "LOW"
        },
        {
          "id": "T4807",
          "name": "Pulmonary Arterial Hypertension",
          "asFound": "Pulmonary Arterial Hypertension",
          "relevance": "HIGH"
        }
      ],
      "browseBranches": [
        {
          "abbrev": "BC14",
          "name": "Heart and Blood Diseases"
        },
        {
          "abbrev": "All",
          "name": "All Conditions"
        },
        {
          "abbrev": "BC08",
          "name": "Respiratory Tract (Lung and Bronchial) Diseases"
        },
        {
          "abbrev": "BC23",
          "name": "Symptoms and General Pathology"
        },
        {
          "abbrev": "Rare",
          "name": "Rare Diseases"
        }
      ]
    },
    "interventionBrowseModule": {
      "browseLeaves": [
        {
          "id": "M324",
          "name": "Imatinib Mesylate",
          "relevance": "LOW"
        }
      ],
      "browseBranches": [
        {
          "abbrev": "ANeo",
          "name": "Antineoplastic Agents"
        },
        {
          "abbrev": "All",
          "name": "All Drugs and Chemicals"
        }
      ]
    }
  },
  "hasResults": true
}